{"type": "FeatureCollection", "features": [{"type": "Feature", "geometry": {"type": "Point", "coordinates": [-122.909897, 45.544478]}, "properties": {"name": "Intel Corp-Ronler Acres Campus", "city": "Hillsboro", "county": "Washington", "industry": "Computers And Electronic Products", "total_releases_lbs": 36693.6, "chemicals": 15}}, {"type": "Feature", "geometry": {"type": "Point", "coordinates": [-122.636028, 45.462365]}, "properties": {"name": "East Side Plating Inc Plants  1-3", "city": "Portland", "county": "Multnomah", "industry": "Fabricated Metals", "total_releases_lbs": 2875.5, "chemicals": 4}}, {"type": "Feature", "geometry": {"type": "Point", "coordinates": [-123.169266, 44.100229]}, "properties": {"name": "Bakelite Chemicals  Llc", "city": "Eugene", "county": "Lane", "industry": "Chemicals", "total_releases_lbs": 6655.0, "chemicals": 6}}, {"type": "Feature", "geometry": {"type": "Point", "coordinates": [-123.37098, 43.154118]}, "properties": {"name": "Mdu Resources Roseburg Asphalt", "city": "Roseburg", "county": "Douglas", "industry": "Petroleum", "total_releases_lbs": 18.9, "chemicals": 4}}, {"type": "Feature", "geometry": {"type": "Point", "coordinates": [-122.69044, 45.586623]}, "properties": {"name": "Arclin Surfaces Llc", "city": "Portland", "county": "Multnomah", "industry": "Paper", "total_releases_lbs": 48274.0, "chemicals": 5}}, {"type": "Feature", "geometry": {"type": "Point", "coordinates": [-123.064591, 44.67303]}, "properties": {"name": "Highline Warren - Albany", "city": "Albany", "county": "Linn", "industry": "Chemicals", "total_releases_lbs": 11912.9, "chemicals": 2}}, {"type": "Feature", "geometry": {"type": "Point", "coordinates": [-122.399306, 45.550984]}, "properties": {"name": "Mdu Resources Knife River Sundial Asphalt", "city": "Troutdale", "county": "Multnomah", "industry": "Petroleum", "total_releases_lbs": 2.6, "chemicals": 3}}, {"type": "Feature", "geometry": {"type": "Point", "coordinates": [-122.613891, 45.434106]}, "properties": {"name": "Oregon Tool Inc.", "city": "Milwaukie", "county": "Clackamas", "industry": "Fabricated Metals", "total_releases_lbs": 127327.7, "chemicals": 4}}, {"type": "Feature", "geometry": {"type": "Point", "coordinates": [-122.555665, 45.407729]}, "properties": {"name": "Consolidated Metco Inc", "city": "Clackamas", "county": "Clackamas", "industry": "Primary Metals", "total_releases_lbs": 220.1, "chemicals": 2}}, {"type": "Feature", "geometry": {"type": "Point", "coordinates": [-122.535035, 45.401821]}, "properties": {"name": "Thermal Fluids Inc. - Clackamas", "city": "Clackamas", "county": "Clackamas", "industry": "Petroleum Bulk Terminals", "total_releases_lbs": 19.1, "chemicals": 6}}, {"type": "Feature", "geometry": {"type": "Point", "coordinates": [-120.3591, 42.204152]}, "properties": {"name": "Collins Pine Co Lakeview Sawmill", "city": "Lakeview", "county": "Lake", "industry": "Wood Products", "total_releases_lbs": 312.0, "chemicals": 1}}, {"type": "Feature", "geometry": {"type": "Point", "coordinates": [-122.965794, 44.055858]}, "properties": {"name": "International Paper", "city": "Springfield", "county": "Lane", "industry": "Paper", "total_releases_lbs": 517841.7, "chemicals": 15}}, {"type": "Feature", "geometry": {"type": "Point", "coordinates": [-123.932352, 44.614245]}, "properties": {"name": "Georgia-Pacific Toledo Llc", "city": "Toledo", "county": "Lincoln", "industry": "Paper", "total_releases_lbs": 904817.3, "chemicals": 16}}, {"type": "Feature", "geometry": {"type": "Point", "coordinates": [-122.581946, 45.426673]}, "properties": {"name": "Pcc Structurals Inc Deer Creek Annex", "city": "Milwaukie", "county": "Clackamas", "industry": "Primary Metals", "total_releases_lbs": 20568.5, "chemicals": 3}}, {"type": "Feature", "geometry": {"type": "Point", "coordinates": [-122.664283, 45.58189]}, "properties": {"name": "Mondelez Global Llc", "city": "Portland", "county": "Multnomah", "industry": "Food", "total_releases_lbs": 64086.0, "chemicals": 1}}, {"type": "Feature", "geometry": {"type": "Point", "coordinates": [-122.778881, 45.38618]}, "properties": {"name": "Valmont Coatings - Pacific States Galvanizing", "city": "Tualatin", "county": "Washington", "industry": "Fabricated Metals", "total_releases_lbs": 242.3, "chemicals": 1}}, {"type": "Feature", "geometry": {"type": "Point", "coordinates": [-122.635427, 45.449217]}, "properties": {"name": "Lma Mcloughlin Annex", "city": "Portland", "county": "Clackamas", "industry": "Primary Metals", "total_releases_lbs": 9408.4, "chemicals": 3}}, {"type": "Feature", "geometry": {"type": "Point", "coordinates": [-118.027968, 45.351421]}, "properties": {"name": "Hexion Inc.", "city": "Island City", "county": "Union", "industry": "Chemicals", "total_releases_lbs": 7916.0, "chemicals": 4}}, {"type": "Feature", "geometry": {"type": "Point", "coordinates": [-122.747878, 45.604344]}, "properties": {"name": "Evraz Heat Treat Portland", "city": "Portland", "county": "Multnomah", "industry": "Fabricated Metals", "total_releases_lbs": 0.0, "chemicals": 3}}, {"type": "Feature", "geometry": {"type": "Point", "coordinates": [-117.441558, 44.497498]}, "properties": {"name": "Ash Grove Cement Co", "city": "Durkee", "county": "Baker", "industry": "Nonmetallic Mineral Product", "total_releases_lbs": 23050.8, "chemicals": 5}}, {"type": "Feature", "geometry": {"type": "Point", "coordinates": [-123.009497, 45.051428]}, "properties": {"name": "Salem Asphalt", "city": "Salem", "county": "Marion", "industry": "Petroleum", "total_releases_lbs": 0.3, "chemicals": 2}}, {"type": "Feature", "geometry": {"type": "Point", "coordinates": [-122.836403, 45.15564]}, "properties": {"name": "Engineered Polymer Solutions", "city": "Woodburn", "county": "Marion", "industry": "Chemicals", "total_releases_lbs": 15831.6, "chemicals": 7}}, {"type": "Feature", "geometry": {"type": "Point", "coordinates": [-121.517322, 45.631611]}, "properties": {"name": "Cardinal Glass", "city": "Hood River", "county": "Hood River", "industry": "Nonmetallic Mineral Product", "total_releases_lbs": 5821.0, "chemicals": 3}}, {"type": "Feature", "geometry": {"type": "Point", "coordinates": [-122.822202, 45.231821]}, "properties": {"name": "Foster Farms Donald Feedmill", "city": "Aurora", "county": "Marion", "industry": "Food", "total_releases_lbs": 0.0, "chemicals": 4}}, {"type": "Feature", "geometry": {"type": "Point", "coordinates": [-123.404438, 42.933091]}, "properties": {"name": "Roseburg Forest Products Co-Ewp Facility", "city": "Riddle", "county": "Douglas", "industry": "Wood Products", "total_releases_lbs": 19482.9, "chemicals": 5}}, {"type": "Feature", "geometry": {"type": "Point", "coordinates": [-122.606938, 45.575662]}, "properties": {"name": "Hydro Extrusion Portland Inc. - Coatings Div", "city": "Portland", "county": "Multnomah", "industry": "Fabricated Metals", "total_releases_lbs": 4055.5, "chemicals": 6}}, {"type": "Feature", "geometry": {"type": "Point", "coordinates": [-123.802788, 45.417806]}, "properties": {"name": "Chs Nutrition Tillamook", "city": "Tillamook", "county": "Tillamook", "industry": "Food", "total_releases_lbs": 0.0, "chemicals": 2}}, {"type": "Feature", "geometry": {"type": "Point", "coordinates": [-120.290059, 45.60332]}, "properties": {"name": "Chemical Waste Management Of The Northwest Inc.", "city": "Arlington", "county": "Gilliam", "industry": "Hazardous Waste", "total_releases_lbs": 4121693.4, "chemicals": 36}}, {"type": "Feature", "geometry": {"type": "Point", "coordinates": [-122.741759, 45.562537]}, "properties": {"name": "Chevron Willbridge Terminal", "city": "Portland", "county": "Multnomah", "industry": "Petroleum Bulk Terminals", "total_releases_lbs": 3587.1, "chemicals": 11}}, {"type": "Feature", "geometry": {"type": "Point", "coordinates": [-124.224129, 43.498162]}, "properties": {"name": "Allweather Wood Llc", "city": "North Bend", "county": "Coos", "industry": "Wood Products", "total_releases_lbs": 15280.0, "chemicals": 3}}, {"type": "Feature", "geometry": {"type": "Point", "coordinates": [-123.107735, 44.096141]}, "properties": {"name": "Mdu Resources Eugene Concrete", "city": "Eugene", "county": "Lane", "industry": "Nonmetallic Mineral Product", "total_releases_lbs": 18.2, "chemicals": 3}}, {"type": "Feature", "geometry": {"type": "Point", "coordinates": [-123.062485, 44.654272]}, "properties": {"name": "Ati Specialty Alloys & Components Llc", "city": "Albany", "county": "Linn", "industry": "Primary Metals", "total_releases_lbs": 671031.2, "chemicals": 14}}, {"type": "Feature", "geometry": {"type": "Point", "coordinates": [-122.72735, 45.549459]}, "properties": {"name": "Shell Portland Distribution Terminal", "city": "Portland", "county": "Multnomah", "industry": "Petroleum Bulk Terminals", "total_releases_lbs": 1977.3, "chemicals": 15}}, {"type": "Feature", "geometry": {"type": "Point", "coordinates": [-123.060487, 44.662968]}, "properties": {"name": "Bakelite Chemicals Llc", "city": "Albany", "county": "Linn", "industry": "Chemicals", "total_releases_lbs": 12245.0, "chemicals": 3}}, {"type": "Feature", "geometry": {"type": "Point", "coordinates": [-122.858885, 42.428607]}, "properties": {"name": "Western Emulsions Inc.", "city": "White City", "county": "Jackson", "industry": "Petroleum", "total_releases_lbs": 29.9, "chemicals": 2}}, {"type": "Feature", "geometry": {"type": "Point", "coordinates": [-123.382546, 42.943429]}, "properties": {"name": "Roseburg Forest Products Co. - Riddle Plywood #4", "city": "Riddle", "county": "Douglas", "industry": "Wood Products", "total_releases_lbs": 91418.6, "chemicals": 5}}, {"type": "Feature", "geometry": {"type": "Point", "coordinates": [-122.933652, 45.54832]}, "properties": {"name": "Dynic Usa", "city": "Hillsboro", "county": "Washington", "industry": "Printing", "total_releases_lbs": 7918.0, "chemicals": 1}}, {"type": "Feature", "geometry": {"type": "Point", "coordinates": [-122.90296, 42.357305]}, "properties": {"name": "Boise Cascade Wood Products Llc Medford Plywood", "city": "Medford", "county": "Jackson", "industry": "Wood Products", "total_releases_lbs": 32112.3, "chemicals": 2}}, {"type": "Feature", "geometry": {"type": "Point", "coordinates": [-123.129827, 44.048708]}, "properties": {"name": "Forrest Paint Co Dba Forrest Technical Coatings", "city": "Eugene", "county": "Lane", "industry": "Chemicals", "total_releases_lbs": 15489.0, "chemicals": 11}}, {"type": "Feature", "geometry": {"type": "Point", "coordinates": [-122.733302, 45.623824]}, "properties": {"name": "Rodda Paint Co", "city": "Portland", "county": "Multnomah", "industry": "Chemicals", "total_releases_lbs": 4654.0, "chemicals": 7}}, {"type": "Feature", "geometry": {"type": "Point", "coordinates": [-121.834441, 42.173878]}, "properties": {"name": "Collins Products Llc", "city": "Klamath Falls", "county": "Klamath", "industry": "Wood Products", "total_releases_lbs": 324335.7, "chemicals": 5}}, {"type": "Feature", "geometry": {"type": "Point", "coordinates": [-122.853026, 45.145209]}, "properties": {"name": "Wilbur Ellis Woodburn", "city": "Woodburn", "county": "Marion", "industry": "Chemicals", "total_releases_lbs": 5.0, "chemicals": 10}}, {"type": "Feature", "geometry": {"type": "Point", "coordinates": [-123.25697, 44.5508]}, "properties": {"name": "Hollingsworth & Vose Fiber Co", "city": "Corvallis", "county": "Benton", "industry": "Nonmetallic Mineral Product", "total_releases_lbs": 13878.0, "chemicals": 2}}, {"type": "Feature", "geometry": {"type": "Point", "coordinates": [-122.9986, 45.512652]}, "properties": {"name": "Hillsboro Concrete", "city": "Hillsboro", "county": "Washington", "industry": "Nonmetallic Mineral Product", "total_releases_lbs": 11.7, "chemicals": 2}}, {"type": "Feature", "geometry": {"type": "Point", "coordinates": [-122.612888, 45.577426]}, "properties": {"name": "The Boeing Company-Pdx", "city": "Portland", "county": "Multnomah", "industry": "Transportation Equipment", "total_releases_lbs": 0.0, "chemicals": 1}}, {"type": "Feature", "geometry": {"type": "Point", "coordinates": [-123.023437, 44.042396]}, "properties": {"name": "Hexion Inc.", "city": "Springfield", "county": "Lane", "industry": "Chemicals", "total_releases_lbs": 31760.7, "chemicals": 7}}, {"type": "Feature", "geometry": {"type": "Point", "coordinates": [-118.026192, 45.35218]}, "properties": {"name": "Kronospan La Grande Llc", "city": "La Grande", "county": "Union", "industry": "Wood Products", "total_releases_lbs": 37101.8, "chemicals": 2}}, {"type": "Feature", "geometry": {"type": "Point", "coordinates": [-122.732628, 45.558959]}, "properties": {"name": "Glacier Northwest Inc Front Ave Ready-Mix Plant", "city": "Portland", "county": "Multnomah", "industry": "Nonmetallic Mineral Product", "total_releases_lbs": 870.6, "chemicals": 2}}, {"type": "Feature", "geometry": {"type": "Point", "coordinates": [-122.456773, 45.537635]}, "properties": {"name": "Cascade Corp", "city": "Fairview", "county": "Multnomah", "industry": "Machinery", "total_releases_lbs": 12.0, "chemicals": 2}}, {"type": "Feature", "geometry": {"type": "Point", "coordinates": [-122.470493, 45.545618]}, "properties": {"name": "Boeing Co Of Portland", "city": "Portland", "county": "Multnomah", "industry": "Transportation Equipment", "total_releases_lbs": 89937.9, "chemicals": 7}}, {"type": "Feature", "geometry": {"type": "Point", "coordinates": [-122.722429, 45.550413]}, "properties": {"name": "Univar Solutions Usa", "city": "Portland", "county": "Multnomah", "industry": "Chemical Wholesalers", "total_releases_lbs": 1118.5, "chemicals": 6}}, {"type": "Feature", "geometry": {"type": "Point", "coordinates": [-122.582696, 45.425077]}, "properties": {"name": "Ssb1", "city": "Milwaukie", "county": "Clackamas", "industry": "Primary Metals", "total_releases_lbs": 554.1, "chemicals": 3}}, {"type": "Feature", "geometry": {"type": "Point", "coordinates": [-122.572383, 45.425907]}, "properties": {"name": "Pcc Structurals Inc Small Structurals Business Operation", "city": "Clackamas", "county": "Clackamas", "industry": "Primary Metals", "total_releases_lbs": 978.0, "chemicals": 3}}, {"type": "Feature", "geometry": {"type": "Point", "coordinates": [-121.277151, 44.114242]}, "properties": {"name": "Suterra Llc", "city": "Bend", "county": "Deschutes", "industry": "Chemicals", "total_releases_lbs": 13364.8, "chemicals": 5}}, {"type": "Feature", "geometry": {"type": "Point", "coordinates": [-122.719518, 45.549364]}, "properties": {"name": "Owens Corning", "city": "Portland", "county": "Multnomah", "industry": "Petroleum", "total_releases_lbs": 37.1, "chemicals": 5}}, {"type": "Feature", "geometry": {"type": "Point", "coordinates": [-122.87019, 42.430938]}, "properties": {"name": "Nic Industries Inc.", "city": "White City", "county": "Jackson", "industry": "Chemicals", "total_releases_lbs": 505.0, "chemicals": 2}}, {"type": "Feature", "geometry": {"type": "Point", "coordinates": [-122.884946, 42.337417]}, "properties": {"name": "Timber Products Co Medford", "city": "Medford", "county": "Jackson", "industry": "Wood Products", "total_releases_lbs": 25150.5, "chemicals": 3}}, {"type": "Feature", "geometry": {"type": "Point", "coordinates": [-122.883317, 42.434907]}, "properties": {"name": "Carestream Health Inc", "city": "White City", "county": "Jackson", "industry": "Chemicals", "total_releases_lbs": 44894.5, "chemicals": 6}}, {"type": "Feature", "geometry": {"type": "Point", "coordinates": [-122.699255, 45.543235]}, "properties": {"name": "Esco Group", "city": "Portland", "county": "Multnomah", "industry": "Primary Metals", "total_releases_lbs": 34072.7, "chemicals": 6}}, {"type": "Feature", "geometry": {"type": "Point", "coordinates": [-122.748998, 45.416729]}, "properties": {"name": "Fiskars Brands Gerber Legendary Blades Div", "city": "Portland", "county": "Washington", "industry": "Fabricated Metals", "total_releases_lbs": 0.0, "chemicals": 1}}, {"type": "Feature", "geometry": {"type": "Point", "coordinates": [-122.990491, 44.040836]}, "properties": {"name": "Swanson Group Mfg Springfield Plywood", "city": "Springfield", "county": "Lane", "industry": "Wood Products", "total_releases_lbs": 428.0, "chemicals": 1}}, {"type": "Feature", "geometry": {"type": "Point", "coordinates": [-119.709947, 45.832086]}, "properties": {"name": "Alto Columbia Llc", "city": "Boardman", "county": "Morrow", "industry": "Chemicals", "total_releases_lbs": 18516.0, "chemicals": 8}}, {"type": "Feature", "geometry": {"type": "Point", "coordinates": [-122.986655, 44.049549]}, "properties": {"name": "Arclin Usa Llc", "city": "Springfield", "county": "Lane", "industry": "Chemicals", "total_releases_lbs": 14734.3, "chemicals": 6}}, {"type": "Feature", "geometry": {"type": "Point", "coordinates": [-123.427324, 45.100312]}, "properties": {"name": "Stella-Jones Corp", "city": "Sheridan", "county": "Yamhill", "industry": "Wood Products", "total_releases_lbs": 4.0, "chemicals": 2}}, {"type": "Feature", "geometry": {"type": "Point", "coordinates": [-122.472799, 45.557854]}, "properties": {"name": "Senneca Holdings (Hmf Express)", "city": "Portland", "county": "Multnomah", "industry": "Fabricated Metals", "total_releases_lbs": 8.0, "chemicals": 2}}, {"type": "Feature", "geometry": {"type": "Point", "coordinates": [-122.822132, 45.90889]}, "properties": {"name": "Dyno Nobel- St.Helens Plant", "city": "Deer Island", "county": "Columbia", "industry": "Chemicals", "total_releases_lbs": 6227183.0, "chemicals": 4}}, {"type": "Feature", "geometry": {"type": "Point", "coordinates": [-123.088147, 45.515003]}, "properties": {"name": "Ttm Technologies N.A. Llc", "city": "Forest Grove", "county": "Washington", "industry": "Computers And Electronic Products", "total_releases_lbs": 8693.4, "chemicals": 6}}, {"type": "Feature", "geometry": {"type": "Point", "coordinates": [-122.422841, 45.52767]}, "properties": {"name": "Onsemi", "city": "Gresham", "county": "Multnomah", "industry": "Computers And Electronic Products", "total_releases_lbs": 128923.0, "chemicals": 9}}, {"type": "Feature", "geometry": {"type": "Point", "coordinates": [-123.165361, 45.230377]}, "properties": {"name": "Cascade Steel Rolling Mills Inc", "city": "Mcminnville", "county": "Yamhill", "industry": "Primary Metals", "total_releases_lbs": 960083.6, "chemicals": 7}}, {"type": "Feature", "geometry": {"type": "Point", "coordinates": [-122.74916, 45.415718]}, "properties": {"name": "Fought & Co Inc", "city": "Tigard", "county": "Washington", "industry": "Fabricated Metals", "total_releases_lbs": 0.0, "chemicals": 1}}, {"type": "Feature", "geometry": {"type": "Point", "coordinates": [-121.166574, 45.598676]}, "properties": {"name": "Amerities West Llc", "city": "The Dalles", "county": "Wasco", "industry": "Wood Products", "total_releases_lbs": 29163.5, "chemicals": 4}}, {"type": "Feature", "geometry": {"type": "Point", "coordinates": [-123.033117, 44.956057]}, "properties": {"name": "Ennis-Flint Salem", "city": "Salem", "county": "Marion", "industry": "Chemicals", "total_releases_lbs": 20446.0, "chemicals": 7}}, {"type": "Feature", "geometry": {"type": "Point", "coordinates": [-122.590641, 45.567168]}, "properties": {"name": "Apex Anodizing", "city": "Portland", "county": "Multnomah", "industry": "Fabricated Metals", "total_releases_lbs": 15327.0, "chemicals": 1}}, {"type": "Feature", "geometry": {"type": "Point", "coordinates": [-123.340246, 43.312364]}, "properties": {"name": "Orenco Systems Inc - North Bank Facility", "city": "Roseburg", "county": "Douglas", "industry": "Plastics And Rubber", "total_releases_lbs": 9056.0, "chemicals": 2}}, {"type": "Feature", "geometry": {"type": "Point", "coordinates": [-123.257727, 44.487919]}, "properties": {"name": "Green & White", "city": "Corvallis", "county": "Benton", "industry": "Nonmetallic Mineral Product", "total_releases_lbs": 1460.9, "chemicals": 2}}, {"type": "Feature", "geometry": {"type": "Point", "coordinates": [-122.971757, 46.101764]}, "properties": {"name": "Us Gypsum Co", "city": "Rainier", "county": "Columbia", "industry": "Nonmetallic Mineral Product", "total_releases_lbs": 7.9, "chemicals": 2}}, {"type": "Feature", "geometry": {"type": "Point", "coordinates": [-123.188699, 44.403312]}, "properties": {"name": "Cascade Pacific Pulp  Halsey Pulp Mill", "city": "Halsey", "county": "Linn", "industry": "Paper", "total_releases_lbs": 878821.0, "chemicals": 15}}, {"type": "Feature", "geometry": {"type": "Point", "coordinates": [-123.407616, 46.151876]}, "properties": {"name": "Georgia-Pacific Wauna Llc", "city": "Clatskanie", "county": "Clatsop", "industry": "Paper", "total_releases_lbs": 491177.3, "chemicals": 16}}, {"type": "Feature", "geometry": {"type": "Point", "coordinates": [-123.191971, 44.861307]}, "properties": {"name": "Marquis Hot Tubs Llc", "city": "Independence", "county": "Polk", "industry": "Plastics And Rubber", "total_releases_lbs": 17271.0, "chemicals": 2}}, {"type": "Feature", "geometry": {"type": "Point", "coordinates": [-122.902275, 42.431236]}, "properties": {"name": "Linde Gas & Equipment Inc.", "city": "White City", "county": "Jackson", "industry": "Chemicals", "total_releases_lbs": 66325.0, "chemicals": 3}}, {"type": "Feature", "geometry": {"type": "Point", "coordinates": [-122.702336, 45.261191]}, "properties": {"name": "Clarios Llc", "city": "Canby", "county": "Clackamas", "industry": "Electrical Equipment", "total_releases_lbs": 1280.9, "chemicals": 2}}, {"type": "Feature", "geometry": {"type": "Point", "coordinates": [-122.610887, 45.459964]}, "properties": {"name": "Pcc Structurals Lpc Titanium Business Ops", "city": "Milwaukie", "county": "Clackamas", "industry": "Primary Metals", "total_releases_lbs": 660398.9, "chemicals": 6}}, {"type": "Feature", "geometry": {"type": "Point", "coordinates": [-122.793212, 45.608097]}, "properties": {"name": "Owens Corning Roofing & Asphalt Llc", "city": "Portland", "county": "Multnomah", "industry": "Petroleum", "total_releases_lbs": 1.5, "chemicals": 3}}, {"type": "Feature", "geometry": {"type": "Point", "coordinates": [-123.385907, 44.540739]}, "properties": {"name": "Interfor Philomath Div", "city": "Philomath", "county": "Benton", "industry": "Wood Products", "total_releases_lbs": 0.4, "chemicals": 1}}, {"type": "Feature", "geometry": {"type": "Point", "coordinates": [-123.023616, 44.92563]}, "properties": {"name": "Akzo Nobel Coatings Inc", "city": "Salem", "county": "Marion", "industry": "Chemicals", "total_releases_lbs": 2435.2, "chemicals": 5}}, {"type": "Feature", "geometry": {"type": "Point", "coordinates": [-123.171959, 44.279504]}, "properties": {"name": "Harrisburg Ps", "city": "Harrisburg", "county": "Linn", "industry": "Nonmetallic Mineral Product", "total_releases_lbs": 0.0, "chemicals": 1}}, {"type": "Feature", "geometry": {"type": "Point", "coordinates": [-122.881317, 45.49428]}, "properties": {"name": "Intel Corp-Aloha Campus", "city": "Aloha", "county": "Washington", "industry": "Computers And Electronic Products", "total_releases_lbs": 14664.0, "chemicals": 5}}, {"type": "Feature", "geometry": {"type": "Point", "coordinates": [-123.053964, 44.5781]}, "properties": {"name": "Selmet Inc", "city": "Albany", "county": "Linn", "industry": "Primary Metals", "total_releases_lbs": 44980.0, "chemicals": 3}}, {"type": "Feature", "geometry": {"type": "Point", "coordinates": [-122.78279, 45.378989]}, "properties": {"name": "High Bar Brands Llc", "city": "Tualatin", "county": "Washington", "industry": "Transportation Equipment", "total_releases_lbs": 814.6, "chemicals": 1}}, {"type": "Feature", "geometry": {"type": "Point", "coordinates": [-122.975805, 45.305587]}, "properties": {"name": "Ppm Technologies Holdings Llc", "city": "Newberg", "county": "Yamhill", "industry": "Machinery", "total_releases_lbs": 0.0, "chemicals": 3}}, {"type": "Feature", "geometry": {"type": "Point", "coordinates": [-122.593437, 45.574495]}, "properties": {"name": "Us Dod Usaf Portland Ang Afb Oregon", "city": "Portland", "county": "Multnomah", "industry": "Other", "total_releases_lbs": 6.2, "chemicals": 1}}, {"type": "Feature", "geometry": {"type": "Point", "coordinates": [-123.111186, 44.560154]}, "properties": {"name": "Steelfab Of Oregon", "city": "Tangent", "county": "Linn", "industry": "Fabricated Metals", "total_releases_lbs": 119.1, "chemicals": 5}}, {"type": "Feature", "geometry": {"type": "Point", "coordinates": [-122.750495, 45.575357]}, "properties": {"name": "Siltronic Corp", "city": "Portland", "county": "Multnomah", "industry": "Computers And Electronic Products", "total_releases_lbs": 392279.4, "chemicals": 4}}, {"type": "Feature", "geometry": {"type": "Point", "coordinates": [-122.594655, 45.456046]}, "properties": {"name": "Pcc Structurals Inc. Lsbs", "city": "Portland", "county": "Clackamas", "industry": "Primary Metals", "total_releases_lbs": 11.4, "chemicals": 3}}, {"type": "Feature", "geometry": {"type": "Point", "coordinates": [-122.635758, 45.574712]}, "properties": {"name": "Tarr Acquisition Llc", "city": "Portland", "county": "Multnomah", "industry": "Chemical Wholesalers", "total_releases_lbs": 1870.6, "chemicals": 7}}, {"type": "Feature", "geometry": {"type": "Point", "coordinates": [-122.780036, 45.625837]}, "properties": {"name": "Evraz Portland", "city": "Portland", "county": "Multnomah", "industry": "Primary Metals", "total_releases_lbs": 988.0, "chemicals": 3}}, {"type": "Feature", "geometry": {"type": "Point", "coordinates": [-122.736334, 45.561881]}, "properties": {"name": "High Purity Products", "city": "Portland", "county": "Multnomah", "industry": "Chemicals", "total_releases_lbs": 1188.1, "chemicals": 2}}, {"type": "Feature", "geometry": {"type": "Point", "coordinates": [-123.102539, 44.6272]}, "properties": {"name": "W.R. Grace & Co.", "city": "Albany", "county": "Linn", "industry": "Chemicals", "total_releases_lbs": 984129.5, "chemicals": 5}}, {"type": "Feature", "geometry": {"type": "Point", "coordinates": [-122.712373, 45.54013]}, "properties": {"name": "Zinkpower Portland Llc", "city": "Portland", "county": "Multnomah", "industry": "Fabricated Metals", "total_releases_lbs": 2376.5, "chemicals": 1}}, {"type": "Feature", "geometry": {"type": "Point", "coordinates": [-122.768763, 45.328255]}, "properties": {"name": "Ess Tech Inc", "city": "Wilsonville", "county": "Clackamas", "industry": "Electrical Equipment", "total_releases_lbs": 0.0, "chemicals": 1}}, {"type": "Feature", "geometry": {"type": "Point", "coordinates": [-122.784306, 45.201825]}, "properties": {"name": "Quikrete - Oregon Plant", "city": "Aurora", "county": "Marion", "industry": "Nonmetallic Mineral Product", "total_releases_lbs": 0.7, "chemicals": 1}}, {"type": "Feature", "geometry": {"type": "Point", "coordinates": [-122.720712, 45.55407]}, "properties": {"name": "Gunderson Marine Llc", "city": "Portland", "county": "Multnomah", "industry": "Transportation Equipment", "total_releases_lbs": 29858.9, "chemicals": 1}}, {"type": "Feature", "geometry": {"type": "Point", "coordinates": [-123.190352, 45.469184]}, "properties": {"name": "Stimson Lumber Co. - Gaston", "city": "Gaston", "county": "Washington", "industry": "Wood Products", "total_releases_lbs": 125.2, "chemicals": 1}}, {"type": "Feature", "geometry": {"type": "Point", "coordinates": [-123.824146, 45.42478]}, "properties": {"name": "Tillamook County Creamery Assoc", "city": "Tillamook", "county": "Tillamook", "industry": "Food", "total_releases_lbs": 250.0, "chemicals": 3}}, {"type": "Feature", "geometry": {"type": "Point", "coordinates": [-123.164268, 46.174587]}, "properties": {"name": "Columbia Pacific Bio-Refinery", "city": "Clatskanie", "county": "Columbia", "industry": "Chemicals", "total_releases_lbs": 0.0, "chemicals": 1}}, {"type": "Feature", "geometry": {"type": "Point", "coordinates": [-123.198123, 45.192827]}, "properties": {"name": "Zieman Manufacturing-Mcminnville Plant 107", "city": "Mcminnville", "county": "Yamhill", "industry": "Fabricated Metals", "total_releases_lbs": 132.0, "chemicals": 3}}, {"type": "Feature", "geometry": {"type": "Point", "coordinates": [-122.772181, 45.313992]}, "properties": {"name": "North American Pipe & Precast", "city": "Wilsonville", "county": "Clackamas", "industry": "Nonmetallic Mineral Product", "total_releases_lbs": 1.3, "chemicals": 2}}, {"type": "Feature", "geometry": {"type": "Point", "coordinates": [-121.802212, 42.250555]}, "properties": {"name": "Jeld-Wen", "city": "Klamath Falls", "county": "Klamath", "industry": "Wood Products", "total_releases_lbs": 2938.8, "chemicals": 2}}, {"type": "Feature", "geometry": {"type": "Point", "coordinates": [-122.74299, 45.567018]}, "properties": {"name": "Certainteed Corp.", "city": "Portland", "county": "Multnomah", "industry": "Petroleum", "total_releases_lbs": 21.8, "chemicals": 7}}, {"type": "Feature", "geometry": {"type": "Point", "coordinates": [-122.693109, 45.605916]}, "properties": {"name": "Ecolube Recovery Llc", "city": "Portland", "county": "Multnomah", "industry": "Petroleum", "total_releases_lbs": 11.3, "chemicals": 3}}, {"type": "Feature", "geometry": {"type": "Point", "coordinates": [-123.162992, 44.061489]}, "properties": {"name": "Eugene Ewp Plant", "city": "Eugene", "county": "Lane", "industry": "Wood Products", "total_releases_lbs": 7299.0, "chemicals": 1}}, {"type": "Feature", "geometry": {"type": "Point", "coordinates": [-123.039719, 45.522465]}, "properties": {"name": "Sheldon Manufacturing Inc.", "city": "Cornelius", "county": "Washington", "industry": "Fabricated Metals", "total_releases_lbs": 0.0, "chemicals": 2}}, {"type": "Feature", "geometry": {"type": "Point", "coordinates": [-124.287193, 42.051582]}, "properties": {"name": "Pacific Wood Laminates Inc", "city": "Brookings", "county": "Curry", "industry": "Wood Products", "total_releases_lbs": 119.6, "chemicals": 1}}, {"type": "Feature", "geometry": {"type": "Point", "coordinates": [-123.240896, 44.588947]}, "properties": {"name": "Hp Inc.", "city": "Corvallis", "county": "Benton", "industry": "Computers And Electronic Products", "total_releases_lbs": 0.0, "chemicals": 1}}, {"type": "Feature", "geometry": {"type": "Point", "coordinates": [-122.546683, 45.403048]}, "properties": {"name": "Glacier Northwest Inc Clackamas Ready Mix", "city": "Clackamas", "county": "Clackamas", "industry": "Nonmetallic Mineral Product", "total_releases_lbs": 1820.2, "chemicals": 2}}, {"type": "Feature", "geometry": {"type": "Point", "coordinates": [-122.82333, 45.367862]}, "properties": {"name": "Cascade Columbia Distribution", "city": "Sherwood", "county": "Washington", "industry": "Chemical Wholesalers", "total_releases_lbs": 1332.0, "chemicals": 8}}, {"type": "Feature", "geometry": {"type": "Point", "coordinates": [-121.204499, 45.630547]}, "properties": {"name": "Hood River Sand Gravel & Ready Mix - The Dalles", "city": "The Dalles", "county": "Wasco", "industry": "Nonmetallic Mineral Product", "total_releases_lbs": 1266.8, "chemicals": 2}}, {"type": "Feature", "geometry": {"type": "Point", "coordinates": [-122.547526, 45.158724]}, "properties": {"name": "Interfor Us - Molalla", "city": "Molalla", "county": "Clackamas", "industry": "Wood Products", "total_releases_lbs": 0.3, "chemicals": 1}}, {"type": "Feature", "geometry": {"type": "Point", "coordinates": [-122.97049, 44.900468]}, "properties": {"name": "Riverbend Sand & Gravel", "city": "Salem", "county": "Marion", "industry": "Nonmetallic Mineral Product", "total_releases_lbs": 1560.7, "chemicals": 4}}, {"type": "Feature", "geometry": {"type": "Point", "coordinates": [-123.006167, 44.71858]}, "properties": {"name": "Wilbur Ellis Jefferson", "city": "Jefferson", "county": "Marion", "industry": "Chemicals", "total_releases_lbs": 0.0, "chemicals": 2}}, {"type": "Feature", "geometry": {"type": "Point", "coordinates": [-122.749911, 45.632867]}, "properties": {"name": "Ajinomoto Foods N.A. Inc", "city": "Portland", "county": "Multnomah", "industry": "Food", "total_releases_lbs": 0.0, "chemicals": 2}}, {"type": "Feature", "geometry": {"type": "Point", "coordinates": [-122.643983, 45.580646]}, "properties": {"name": "Hydro Extrusion Portland Inc. - Main Plant", "city": "Portland", "county": "Multnomah", "industry": "Primary Metals", "total_releases_lbs": 5.0, "chemicals": 1}}, {"type": "Feature", "geometry": {"type": "Point", "coordinates": [-121.165561, 44.283833]}, "properties": {"name": "Pcc Structurals Inc Schlosser", "city": "Redmond", "county": "Deschutes", "industry": "Primary Metals", "total_releases_lbs": 30939.9, "chemicals": 3}}, {"type": "Feature", "geometry": {"type": "Point", "coordinates": [-122.765283, 45.612079]}, "properties": {"name": "Hexion Inc", "city": "Portland", "county": "Multnomah", "industry": "Chemicals", "total_releases_lbs": 143.1, "chemicals": 1}}, {"type": "Feature", "geometry": {"type": "Point", "coordinates": [-122.835224, 45.159846]}, "properties": {"name": "M-D Building Products Inc.", "city": "Woodburn", "county": "Marion", "industry": "Plastics And Rubber", "total_releases_lbs": 0.0, "chemicals": 1}}, {"type": "Feature", "geometry": {"type": "Point", "coordinates": [-123.366021, 43.183251]}, "properties": {"name": "Swanson Group Manfuacturing", "city": "Roseburg", "county": "Douglas", "industry": "Wood Products", "total_releases_lbs": 3.4, "chemicals": 1}}, {"type": "Feature", "geometry": {"type": "Point", "coordinates": [-121.155096, 44.281215]}, "properties": {"name": "Mdu Resources Redmond Concrete", "city": "Redmond", "county": "Deschutes", "industry": "Petroleum", "total_releases_lbs": 110.1, "chemicals": 4}}, {"type": "Feature", "geometry": {"type": "Point", "coordinates": [-119.657395, 45.845335]}, "properties": {"name": "Columbia River Technologies", "city": "Boardman", "county": "Morrow", "industry": "Food", "total_releases_lbs": 31287.3, "chemicals": 2}}, {"type": "Feature", "geometry": {"type": "Point", "coordinates": [-122.445669, 45.519156]}, "properties": {"name": "Microchip Technology Inc", "city": "Gresham", "county": "Multnomah", "industry": "Computers And Electronic Products", "total_releases_lbs": 75836.2, "chemicals": 6}}, {"type": "Feature", "geometry": {"type": "Point", "coordinates": [-123.060717, 44.665659]}, "properties": {"name": "Arauco N.A. Inc. - Duraflake Particleboard", "city": "Albany", "county": "Linn", "industry": "Wood Products", "total_releases_lbs": 76619.5, "chemicals": 2}}, {"type": "Feature", "geometry": {"type": "Point", "coordinates": [-123.140299, 44.062793]}, "properties": {"name": "Western Pneumatics Llc", "city": "Eugene", "county": "Lane", "industry": "Fabricated Metals", "total_releases_lbs": 0.1, "chemicals": 1}}, {"type": "Feature", "geometry": {"type": "Point", "coordinates": [-122.918919, 44.548797]}, "properties": {"name": "Entek International Llc", "city": "Lebanon", "county": "Linn", "industry": "Chemicals", "total_releases_lbs": 46628.6, "chemicals": 1}}, {"type": "Feature", "geometry": {"type": "Point", "coordinates": [-123.055176, 44.686058]}, "properties": {"name": "Palm Harbor Homes Inc", "city": "Albany", "county": "Linn", "industry": "Wood Products", "total_releases_lbs": 0.0, "chemicals": 1}}, {"type": "Feature", "geometry": {"type": "Point", "coordinates": [-123.427108, 43.096646]}, "properties": {"name": "Roseburg Forest Products Dillard Complex", "city": "Dillard", "county": "Douglas", "industry": "Wood Products", "total_releases_lbs": 104061.2, "chemicals": 4}}, {"type": "Feature", "geometry": {"type": "Point", "coordinates": [-123.028411, 45.093496]}, "properties": {"name": "Wheatland Concrete", "city": "Gervais", "county": "Marion", "industry": "Nonmetallic Mineral Product", "total_releases_lbs": 15.2, "chemicals": 2}}, {"type": "Feature", "geometry": {"type": "Point", "coordinates": [-124.219303, 43.492644]}, "properties": {"name": "Conrad Wood Preserving Co", "city": "North Bend", "county": "Coos", "industry": "Wood Products", "total_releases_lbs": 0.0, "chemicals": 1}}, {"type": "Feature", "geometry": {"type": "Point", "coordinates": [-122.783847, 45.37906]}, "properties": {"name": "Griffith Polymers", "city": "Tualatin", "county": "Washington", "industry": "Plastics And Rubber", "total_releases_lbs": 0.0, "chemicals": 1}}, {"type": "Feature", "geometry": {"type": "Point", "coordinates": [-119.657395, 45.845335]}, "properties": {"name": "Columbia River Processing", "city": "Boardman", "county": "Morrow", "industry": "Food", "total_releases_lbs": 9888.5, "chemicals": 3}}, {"type": "Feature", "geometry": {"type": "Point", "coordinates": [-119.302196, 45.904292]}, "properties": {"name": "American Rock Products Hermiston", "city": "Hermiston", "county": "Umatilla", "industry": "Nonmetallic Mineral Product", "total_releases_lbs": 2441.9, "chemicals": 2}}, {"type": "Feature", "geometry": {"type": "Point", "coordinates": [-122.786876, 45.37167]}, "properties": {"name": "Chemstation Of Oregon", "city": "Tualatin", "county": "Washington", "industry": "Chemicals", "total_releases_lbs": 0.0, "chemicals": 3}}, {"type": "Feature", "geometry": {"type": "Point", "coordinates": [-122.768754, 45.325171]}, "properties": {"name": "Twist Bioscience", "city": "Wilsonville", "county": "Clackamas", "industry": "Chemicals", "total_releases_lbs": 347.3, "chemicals": 1}}, {"type": "Feature", "geometry": {"type": "Point", "coordinates": [-122.791105, 45.371872]}, "properties": {"name": "Sure Power Inc.", "city": "Tualatin", "county": "Washington", "industry": "Transportation Equipment", "total_releases_lbs": 0.1, "chemicals": 1}}, {"type": "Feature", "geometry": {"type": "Point", "coordinates": [-122.824594, 45.503287]}, "properties": {"name": "Analog Devices Inc. Beaverton", "city": "Beaverton", "county": "Washington", "industry": "Computers And Electronic Products", "total_releases_lbs": 86252.0, "chemicals": 6}}, {"type": "Feature", "geometry": {"type": "Point", "coordinates": [-122.414031, 45.481236]}, "properties": {"name": "Columbia Brick Plant", "city": "Gresham", "county": "Multnomah", "industry": "Nonmetallic Mineral Product", "total_releases_lbs": 0.0, "chemicals": 1}}, {"type": "Feature", "geometry": {"type": "Point", "coordinates": [-123.122743, 44.060441]}, "properties": {"name": "Pierce Fittings Inc.", "city": "Eugene", "county": "Lane", "industry": "Fabricated Metals", "total_releases_lbs": 242.9, "chemicals": 1}}, {"type": "Feature", "geometry": {"type": "Point", "coordinates": [-123.129934, 44.053761]}, "properties": {"name": "The Willamette Valley Co Llc", "city": "Eugene", "county": "Lane", "industry": "Chemicals", "total_releases_lbs": 0.0, "chemicals": 3}}, {"type": "Feature", "geometry": {"type": "Point", "coordinates": [-122.951684, 45.299057]}, "properties": {"name": "3D Plastics Inc.", "city": "Newberg", "county": "Yamhill", "industry": "Plastics And Rubber", "total_releases_lbs": 0.0, "chemicals": 1}}, {"type": "Feature", "geometry": {"type": "Point", "coordinates": [-123.103014, 44.624092]}, "properties": {"name": "Pacific Cast Technologies Inc", "city": "Albany", "county": "Linn", "industry": "Primary Metals", "total_releases_lbs": 1188577.5, "chemicals": 3}}, {"type": "Feature", "geometry": {"type": "Point", "coordinates": [-122.709916, 45.546359]}, "properties": {"name": "Solenis Llc", "city": "Portland", "county": "Multnomah", "industry": "Chemicals", "total_releases_lbs": 3498.4, "chemicals": 4}}, {"type": "Feature", "geometry": {"type": "Point", "coordinates": [-122.547357, 45.565955]}, "properties": {"name": "Pentagon Technologies", "city": "Portland", "county": "Multnomah", "industry": "Fabricated Metals", "total_releases_lbs": 3451.2, "chemicals": 3}}, {"type": "Feature", "geometry": {"type": "Point", "coordinates": [-121.327237, 44.049991]}, "properties": {"name": "Nosler Inc", "city": "Bend", "county": "Deschutes", "industry": "Fabricated Metals", "total_releases_lbs": 24.7, "chemicals": 2}}, {"type": "Feature", "geometry": {"type": "Point", "coordinates": [-122.911527, 45.565421]}, "properties": {"name": "Quantumclean", "city": "Hillsboro", "county": "Washington", "industry": "Fabricated Metals", "total_releases_lbs": 29875.2, "chemicals": 5}}, {"type": "Feature", "geometry": {"type": "Point", "coordinates": [-122.958282, 42.426084]}, "properties": {"name": "Mdu Resources Central Point Concrete", "city": "Central Point", "county": "Jackson", "industry": "Petroleum", "total_releases_lbs": 0.5, "chemicals": 2}}, {"type": "Feature", "geometry": {"type": "Point", "coordinates": [-122.68276, 45.540647]}, "properties": {"name": "Central Premix Concrete Products Co.", "city": "Portland", "county": "Multnomah", "industry": "Nonmetallic Mineral Product", "total_releases_lbs": 0.1, "chemicals": 2}}, {"type": "Feature", "geometry": {"type": "Point", "coordinates": [-122.926144, 45.552646]}, "properties": {"name": "Tokyo Ohka Kogyo America Inc", "city": "Hillsboro", "county": "Washington", "industry": "Chemicals", "total_releases_lbs": 3151.0, "chemicals": 3}}, {"type": "Feature", "geometry": {"type": "Point", "coordinates": [-122.659736, 45.50348]}, "properties": {"name": "Darigold - Portland", "city": "Portland", "county": "Multnomah", "industry": "Food", "total_releases_lbs": 8125.0, "chemicals": 3}}, {"type": "Feature", "geometry": {"type": "Point", "coordinates": [-121.169069, 44.266791]}, "properties": {"name": "Key Technology Inc.", "city": "Redmond", "county": "Deschutes", "industry": "Machinery", "total_releases_lbs": 0.0, "chemicals": 3}}, {"type": "Feature", "geometry": {"type": "Point", "coordinates": [-121.143319, 44.664673]}, "properties": {"name": "Wilbur-Ellis Madras", "city": "Madras", "county": "Jefferson", "industry": "Chemicals", "total_releases_lbs": 0.0, "chemicals": 2}}, {"type": "Feature", "geometry": {"type": "Point", "coordinates": [-122.892582, 42.349665]}, "properties": {"name": "Roseburg Forest Products Co. - Medford Mdf", "city": "Medford", "county": "Jackson", "industry": "Wood Products", "total_releases_lbs": 49908.4, "chemicals": 5}}, {"type": "Feature", "geometry": {"type": "Point", "coordinates": [-122.579379, 45.328978]}, "properties": {"name": "Orchid Orthopedic Solutions Oregon Inc", "city": "Oregon City", "county": "Clackamas", "industry": "Primary Metals", "total_releases_lbs": 2774.9, "chemicals": 2}}, {"type": "Feature", "geometry": {"type": "Point", "coordinates": [-123.113238, 44.618201]}, "properties": {"name": "Clayton Albany", "city": "Albany", "county": "Linn", "industry": "Wood Products", "total_releases_lbs": 0.0, "chemicals": 1}}, {"type": "Feature", "geometry": {"type": "Point", "coordinates": [-119.300233, 45.806155]}, "properties": {"name": "Chs Hermiston Feed", "city": "Hermiston", "county": "Umatilla", "industry": "Food", "total_releases_lbs": 0.0, "chemicals": 3}}, {"type": "Feature", "geometry": {"type": "Point", "coordinates": [-122.741631, 45.562464]}, "properties": {"name": "Phillips 66 Portland Terminal", "city": "Portland", "county": "Multnomah", "industry": "Petroleum Bulk Terminals", "total_releases_lbs": 8921.4, "chemicals": 11}}, {"type": "Feature", "geometry": {"type": "Point", "coordinates": [-121.202532, 45.625703]}, "properties": {"name": "Hydro Extrusion Usa Llc", "city": "The Dalles", "county": "Wasco", "industry": "Primary Metals", "total_releases_lbs": 0.7, "chemicals": 1}}, {"type": "Feature", "geometry": {"type": "Point", "coordinates": [-123.226734, 43.23782]}, "properties": {"name": "Austin Powder Co", "city": "Roseburg", "county": "Douglas", "industry": "Chemicals", "total_releases_lbs": 0.0, "chemicals": 1}}, {"type": "Feature", "geometry": {"type": "Point", "coordinates": [-122.958282, 42.426084]}, "properties": {"name": "Kirtland Concrete", "city": "Central Point", "county": "Jackson", "industry": "Nonmetallic Mineral Product", "total_releases_lbs": 656.7, "chemicals": 2}}, {"type": "Feature", "geometry": {"type": "Point", "coordinates": [-122.94973, 42.414957]}, "properties": {"name": "Southern Oregon Ready Mix", "city": "Central Point", "county": "Jackson", "industry": "Petroleum", "total_releases_lbs": 0.1, "chemicals": 1}}, {"type": "Feature", "geometry": {"type": "Point", "coordinates": [-121.499005, 45.707306]}, "properties": {"name": "Cpm Development Corp. Dba Hood River Sand Gravel & Ready-M", "city": "Hood River", "county": "Hood River", "industry": "Nonmetallic Mineral Product", "total_releases_lbs": 11.4, "chemicals": 1}}, {"type": "Feature", "geometry": {"type": "Point", "coordinates": [-121.173917, 44.25729]}, "properties": {"name": "Nosler Inc.", "city": "Redmond", "county": "Deschutes", "industry": "Fabricated Metals", "total_releases_lbs": 1.8, "chemicals": 1}}, {"type": "Feature", "geometry": {"type": "Point", "coordinates": [-122.720573, 45.564337]}, "properties": {"name": "Vigor Industrial", "city": "Portland", "county": "Multnomah", "industry": "Transportation Equipment", "total_releases_lbs": 62666.1, "chemicals": 5}}, {"type": "Feature", "geometry": {"type": "Point", "coordinates": [-123.023344, 45.271878]}, "properties": {"name": "M&W Fiberglass Inc", "city": "Dundee", "county": "Yamhill", "industry": "Plastics And Rubber", "total_releases_lbs": 11881.0, "chemicals": 1}}, {"type": "Feature", "geometry": {"type": "Point", "coordinates": [-124.21608, 43.182107]}, "properties": {"name": "Roseburg Forest Products Co. - Coquille Plywood", "city": "Coquille", "county": "Coos", "industry": "Wood Products", "total_releases_lbs": 33824.0, "chemicals": 4}}, {"type": "Feature", "geometry": {"type": "Point", "coordinates": [-122.902409, 45.455513]}, "properties": {"name": "Knife River Farmington Asphalt", "city": "Beaverton", "county": "Washington", "industry": "Petroleum", "total_releases_lbs": 0.4, "chemicals": 2}}, {"type": "Feature", "geometry": {"type": "Point", "coordinates": [-123.318297, 42.433876]}, "properties": {"name": "Masterbrand Cabinets Llc-Grants Pass Operations", "city": "Grants Pass", "county": "Josephine", "industry": "Furniture", "total_releases_lbs": 45124.0, "chemicals": 3}}, {"type": "Feature", "geometry": {"type": "Point", "coordinates": [-118.844365, 45.669467]}, "properties": {"name": "Keystone Rv", "city": "Pendleton", "county": "Umatilla", "industry": "Transportation Equipment", "total_releases_lbs": 0.0, "chemicals": 1}}, {"type": "Feature", "geometry": {"type": "Point", "coordinates": [-121.885922, 42.535081]}, "properties": {"name": "Door Systems Chiloquin", "city": "Chiloquin", "county": "Klamath", "industry": "Wood Products", "total_releases_lbs": 0.0, "chemicals": 1}}, {"type": "Feature", "geometry": {"type": "Point", "coordinates": [-122.795497, 45.611189]}, "properties": {"name": "Linnton", "city": "Portland", "county": "Multnomah", "industry": "Nonmetallic Mineral Product", "total_releases_lbs": 1.1, "chemicals": 1}}, {"type": "Feature", "geometry": {"type": "Point", "coordinates": [-123.290077, 44.508661]}, "properties": {"name": "Oregon Rubber Mills Co", "city": "Corvallis", "county": "Benton", "industry": "Chemicals", "total_releases_lbs": 250.0, "chemicals": 1}}, {"type": "Feature", "geometry": {"type": "Point", "coordinates": [-123.333164, 43.381042]}, "properties": {"name": "Orenco Systems Inc - Sutherlin Facility", "city": "Sutherlin", "county": "Douglas", "industry": "Plastics And Rubber", "total_releases_lbs": 5584.0, "chemicals": 2}}, {"type": "Feature", "geometry": {"type": "Point", "coordinates": [-122.930232, 45.546781]}, "properties": {"name": "Jireh Semiconductor Inc", "city": "Hillsboro", "county": "Washington", "industry": "Computers And Electronic Products", "total_releases_lbs": 642.8, "chemicals": 3}}, {"type": "Feature", "geometry": {"type": "Point", "coordinates": [-123.344553, 43.316697]}, "properties": {"name": "Fcc Commercial Furniture Inc.", "city": "Roseburg", "county": "Douglas", "industry": "Furniture", "total_releases_lbs": 2914.0, "chemicals": 1}}, {"type": "Feature", "geometry": {"type": "Point", "coordinates": [-123.349152, 43.298729]}, "properties": {"name": "Orenco Systems Inc - Winchester Facility", "city": "Roseburg", "county": "Douglas", "industry": "Plastics And Rubber", "total_releases_lbs": 6691.0, "chemicals": 1}}, {"type": "Feature", "geometry": {"type": "Point", "coordinates": [-122.807244, 45.384654]}, "properties": {"name": "Anodize Solutions", "city": "Tualatin", "county": "Washington", "industry": "Fabricated Metals", "total_releases_lbs": 3297.0, "chemicals": 2}}, {"type": "Feature", "geometry": {"type": "Point", "coordinates": [-122.883496, 42.430871]}, "properties": {"name": "Allweather Wood Llc", "city": "White City", "county": "Jackson", "industry": "Wood Products", "total_releases_lbs": 0.0, "chemicals": 1}}, {"type": "Feature", "geometry": {"type": "Point", "coordinates": [-122.890385, 45.548008]}, "properties": {"name": "Epson Portland Inc.", "city": "Hillsboro", "county": "Washington", "industry": "Chemicals", "total_releases_lbs": 0.0, "chemicals": 1}}, {"type": "Feature", "geometry": {"type": "Point", "coordinates": [-123.077727, 45.525233]}, "properties": {"name": "Westak Of Oregon", "city": "Forest Grove", "county": "Washington", "industry": "Computers And Electronic Products", "total_releases_lbs": 296.3, "chemicals": 4}}, {"type": "Feature", "geometry": {"type": "Point", "coordinates": [-123.419574, 42.747611]}, "properties": {"name": "Swanson Group Mfg Glendale Plywood", "city": "Glendale", "county": "Douglas", "industry": "Wood Products", "total_releases_lbs": 520.0, "chemicals": 1}}, {"type": "Feature", "geometry": {"type": "Point", "coordinates": [-123.158495, 46.171658]}, "properties": {"name": "Pge Beaver Plant & Port Westward Plant", "city": "Clatskanie", "county": "Columbia", "industry": "Electric Utilities", "total_releases_lbs": 119805.0, "chemicals": 3}}, {"type": "Feature", "geometry": {"type": "Point", "coordinates": [-122.909734, 45.544711]}, "properties": {"name": "American Precision Industries", "city": "Hillsboro", "county": "Washington", "industry": "Fabricated Metals", "total_releases_lbs": 210.0, "chemicals": 2}}, {"type": "Feature", "geometry": {"type": "Point", "coordinates": [-124.312408, 42.077659]}, "properties": {"name": "South Coast Lumber Co", "city": "Brookings", "county": "Curry", "industry": "Wood Products", "total_releases_lbs": 69.2, "chemicals": 1}}, {"type": "Feature", "geometry": {"type": "Point", "coordinates": [-123.178246, 44.064404]}, "properties": {"name": "Bulk Handling Systems Inc", "city": "Eugene", "county": "Lane", "industry": "Fabricated Metals", "total_releases_lbs": 0.0, "chemicals": 4}}, {"type": "Feature", "geometry": {"type": "Point", "coordinates": [-122.764535, 45.612318]}, "properties": {"name": "Northwest Pipe Co", "city": "Portland", "county": "Multnomah", "industry": "Primary Metals", "total_releases_lbs": 0.0, "chemicals": 1}}, {"type": "Feature", "geometry": {"type": "Point", "coordinates": [-122.595006, 45.33343]}, "properties": {"name": "Benchmade Knife Co", "city": "Oregon City", "county": "Clackamas", "industry": "Fabricated Metals", "total_releases_lbs": 4448.0, "chemicals": 1}}, {"type": "Feature", "geometry": {"type": "Point", "coordinates": [-122.66288, 45.51433]}, "properties": {"name": "Pratt & Larson Ceramics", "city": "Portland", "county": "Multnomah", "industry": "Nonmetallic Mineral Product", "total_releases_lbs": 0.1, "chemicals": 1}}, {"type": "Feature", "geometry": {"type": "Point", "coordinates": [-123.188768, 44.403314]}, "properties": {"name": "Georgia-Pacific Consumer Operations Llc", "city": "Halsey", "county": "Linn", "industry": "Paper", "total_releases_lbs": 74001.4, "chemicals": 2}}, {"type": "Feature", "geometry": {"type": "Point", "coordinates": [-122.767746, 45.617684]}, "properties": {"name": "Tci America", "city": "Portland", "county": "Multnomah", "industry": "Chemicals", "total_releases_lbs": 0.0, "chemicals": 2}}, {"type": "Feature", "geometry": {"type": "Point", "coordinates": [-122.699932, 45.558537]}, "properties": {"name": "Kroger Co Swan Island Dairy", "city": "Portland", "county": "Multnomah", "industry": "Food", "total_releases_lbs": 0.0, "chemicals": 2}}, {"type": "Feature", "geometry": {"type": "Point", "coordinates": [-122.799799, 45.347073]}, "properties": {"name": "Coffee Lake Concrete", "city": "Sherwood", "county": "Washington", "industry": "Nonmetallic Mineral Product", "total_releases_lbs": 12.3, "chemicals": 4}}, {"type": "Feature", "geometry": {"type": "Point", "coordinates": [-123.080191, 45.525105]}, "properties": {"name": "Dmh Inc", "city": "Forest Grove", "county": "Washington", "industry": "Wood Products", "total_releases_lbs": 4457.0, "chemicals": 1}}, {"type": "Feature", "geometry": {"type": "Point", "coordinates": [-123.17209, 45.217892]}, "properties": {"name": "Mcminnville Concrete", "city": "Mcminnville", "county": "Yamhill", "industry": "Nonmetallic Mineral Product", "total_releases_lbs": 0.7, "chemicals": 1}}, {"type": "Feature", "geometry": {"type": "Point", "coordinates": [-122.644585, 45.496228]}, "properties": {"name": "Bullseye Glass Co Inc", "city": "Portland", "county": "Multnomah", "industry": "Nonmetallic Mineral Product", "total_releases_lbs": 486.7, "chemicals": 2}}, {"type": "Feature", "geometry": {"type": "Point", "coordinates": [-123.161676, 44.09995]}, "properties": {"name": "Murphy Plywood Co Eugene Operations", "city": "Eugene", "county": "Lane", "industry": "Wood Products", "total_releases_lbs": 45105.0, "chemicals": 3}}, {"type": "Feature", "geometry": {"type": "Point", "coordinates": [-122.411828, 45.540841]}, "properties": {"name": "Willamette Graystone - Wood Village Or Paver Plan", "city": "Troutdale", "county": "Multnomah", "industry": "Nonmetallic Mineral Product", "total_releases_lbs": 0.2, "chemicals": 1}}, {"type": "Feature", "geometry": {"type": "Point", "coordinates": [-122.878397, 42.376608]}, "properties": {"name": "Medford Air Tanker Base", "city": "Medford", "county": "Jackson", "industry": "Other", "total_releases_lbs": 5.0, "chemicals": 1}}, {"type": "Feature", "geometry": {"type": "Point", "coordinates": [-123.154224, 44.058549]}, "properties": {"name": "Oregon Rubber Co", "city": "Eugene", "county": "Lane", "industry": "Chemicals", "total_releases_lbs": 17.0, "chemicals": 1}}, {"type": "Feature", "geometry": {"type": "Point", "coordinates": [-122.898544, 45.531929]}, "properties": {"name": "Fusion Ems Aka Quality Production Ltd.", "city": "Hillsboro", "county": "Washington", "industry": "Computers And Electronic Products", "total_releases_lbs": 0.9, "chemicals": 1}}, {"type": "Feature", "geometry": {"type": "Point", "coordinates": [-122.706001, 45.612802]}, "properties": {"name": "Lacamas Laboratories Inc", "city": "Portland", "county": "Multnomah", "industry": "Chemicals", "total_releases_lbs": 709.8, "chemicals": 3}}, {"type": "Feature", "geometry": {"type": "Point", "coordinates": [-122.880916, 45.535785]}, "properties": {"name": "Glacier Northwest Inc Hillsboro Ready-Mix Plant", "city": "Hillsboro", "county": "Washington", "industry": "Nonmetallic Mineral Product", "total_releases_lbs": 2134.9, "chemicals": 2}}, {"type": "Feature", "geometry": {"type": "Point", "coordinates": [-122.82333, 45.367862]}, "properties": {"name": "Northstar Chemical", "city": "Sherwood", "county": "Washington", "industry": "Chemical Wholesalers", "total_releases_lbs": 30.6, "chemicals": 1}}, {"type": "Feature", "geometry": {"type": "Point", "coordinates": [-124.201314, 43.354902]}, "properties": {"name": "Coos Asphalt", "city": "Coos Bay", "county": "Coos", "industry": "Petroleum", "total_releases_lbs": 0.2, "chemicals": 1}}, {"type": "Feature", "geometry": {"type": "Point", "coordinates": [-118.829211, 45.672182]}, "properties": {"name": "Lippert Components Inc. - Plant #27", "city": "Pendleton", "county": "Umatilla", "industry": "Fabricated Metals", "total_releases_lbs": 5055.9, "chemicals": 4}}, {"type": "Feature", "geometry": {"type": "Point", "coordinates": [-123.12382, 43.303068]}, "properties": {"name": "Caddock Electronics Inc.", "city": "Roseburg", "county": "Douglas", "industry": "Computers And Electronic Products", "total_releases_lbs": 0.0, "chemicals": 1}}, {"type": "Feature", "geometry": {"type": "Point", "coordinates": [-119.428634, 45.800843]}, "properties": {"name": "Us Army National Guard Rees Training Center Ranges", "city": "Hermiston", "county": "Umatilla", "industry": "Other", "total_releases_lbs": 581.1, "chemicals": 1}}, {"type": "Feature", "geometry": {"type": "Point", "coordinates": [-122.98871, 44.045789]}, "properties": {"name": "Rosboro Co Llc Springfield Facility", "city": "Springfield", "county": "Lane", "industry": "Wood Products", "total_releases_lbs": 20.0, "chemicals": 1}}, {"type": "Feature", "geometry": {"type": "Point", "coordinates": [-123.395508, 45.084991]}, "properties": {"name": "Federal Correctional Institution Sheridan", "city": "Sheridan", "county": "Yamhill", "industry": "Other", "total_releases_lbs": 1.7, "chemicals": 1}}, {"type": "Feature", "geometry": {"type": "Point", "coordinates": [-122.352277, 45.35558]}, "properties": {"name": "Eagle Foundry Co", "city": "Eagle Creek", "county": "Clackamas", "industry": "Primary Metals", "total_releases_lbs": 57.2, "chemicals": 2}}, {"type": "Feature", "geometry": {"type": "Point", "coordinates": [-122.874422, 44.822937]}, "properties": {"name": "Statera Fiberglass Llc - Aumsville Plant", "city": "Aumsville", "county": "Marion", "industry": "Plastics And Rubber", "total_releases_lbs": 59528.0, "chemicals": 1}}, {"type": "Feature", "geometry": {"type": "Point", "coordinates": [-122.706795, 45.541206]}, "properties": {"name": "Griffith Rubber Mills", "city": "Portland", "county": "Multnomah", "industry": "Plastics And Rubber", "total_releases_lbs": 3408.0, "chemicals": 1}}, {"type": "Feature", "geometry": {"type": "Point", "coordinates": [-122.873617, 42.427293]}, "properties": {"name": "Ascentron Inc", "city": "White City", "county": "Jackson", "industry": "Computers And Electronic Products", "total_releases_lbs": 0.0, "chemicals": 1}}, {"type": "Feature", "geometry": {"type": "Point", "coordinates": [-124.19816, 43.336759]}, "properties": {"name": "Millington Concrete", "city": "Coos Bay", "county": "Coos", "industry": "Nonmetallic Mineral Product", "total_releases_lbs": 9.6, "chemicals": 2}}, {"type": "Feature", "geometry": {"type": "Point", "coordinates": [-123.241126, 44.563874]}, "properties": {"name": "Corvallis Asphalt", "city": "Corvallis", "county": "Linn", "industry": "Nonmetallic Mineral Product", "total_releases_lbs": 1.1, "chemicals": 3}}, {"type": "Feature", "geometry": {"type": "Point", "coordinates": [-122.965398, 46.098855]}, "properties": {"name": "Conrad Wood Preserving Co", "city": "Rainier", "county": "Columbia", "industry": "Wood Products", "total_releases_lbs": 0.0, "chemicals": 1}}, {"type": "Feature", "geometry": {"type": "Point", "coordinates": [-119.371963, 45.806832]}, "properties": {"name": "Lamb Weston Inc.", "city": "Hermiston", "county": "Umatilla", "industry": "Food", "total_releases_lbs": 426347.0, "chemicals": 2}}, {"type": "Feature", "geometry": {"type": "Point", "coordinates": [-123.178161, 44.057132]}, "properties": {"name": "Scientific Developments Inc", "city": "Eugene", "county": "Lane", "industry": "Plastics And Rubber", "total_releases_lbs": 400.0, "chemicals": 4}}, {"type": "Feature", "geometry": {"type": "Point", "coordinates": [-122.736059, 45.561665]}, "properties": {"name": "Brenntag Pacific Inc.", "city": "Portland", "county": "Multnomah", "industry": "Chemical Wholesalers", "total_releases_lbs": 834.5, "chemicals": 1}}, {"type": "Feature", "geometry": {"type": "Point", "coordinates": [-122.780308, 45.622493]}, "properties": {"name": "Ash Grove Cement Co", "city": "Portland", "county": "Multnomah", "industry": "Nonmetallic Mineral Product", "total_releases_lbs": 0.1, "chemicals": 2}}, {"type": "Feature", "geometry": {"type": "Point", "coordinates": [-122.613303, 45.358512]}, "properties": {"name": "Willamette Falls Paper Co", "city": "West Linn", "county": "Clackamas", "industry": "Paper", "total_releases_lbs": 20.7, "chemicals": 2}}, {"type": "Feature", "geometry": {"type": "Point", "coordinates": [-121.772812, 42.18295]}, "properties": {"name": "Mdu Resources Klamath Falls Concrete", "city": "Klamath Falls", "county": "Klamath", "industry": "Nonmetallic Mineral Product", "total_releases_lbs": 0.6, "chemicals": 1}}, {"type": "Feature", "geometry": {"type": "Point", "coordinates": [-122.993693, 44.907995]}, "properties": {"name": "Garmin At Inc.", "city": "Salem", "county": "Marion", "industry": "Computers And Electronic Products", "total_releases_lbs": 0.0, "chemicals": 1}}, {"type": "Feature", "geometry": {"type": "Point", "coordinates": [-122.766977, 45.638163]}, "properties": {"name": "Purina Animal Nutrition Llc - Rivergate", "city": "Portland", "county": "Multnomah", "industry": "Food", "total_releases_lbs": 0.0, "chemicals": 1}}, {"type": "Feature", "geometry": {"type": "Point", "coordinates": [-122.767436, 45.619426]}, "properties": {"name": "Kanto Corp", "city": "Portland", "county": "Multnomah", "industry": "Chemical Wholesalers", "total_releases_lbs": 30.0, "chemicals": 3}}, {"type": "Feature", "geometry": {"type": "Point", "coordinates": [-122.586502, 45.228717]}, "properties": {"name": "Asc Sunstone Circuits", "city": "Mulino", "county": "Clackamas", "industry": "Computers And Electronic Products", "total_releases_lbs": 84.6, "chemicals": 2}}, {"type": "Feature", "geometry": {"type": "Point", "coordinates": [-122.698761, 45.589298]}, "properties": {"name": "Herbert Malarkey Roofing Co", "city": "Portland", "county": "Multnomah", "industry": "Petroleum", "total_releases_lbs": 12.4, "chemicals": 3}}, {"type": "Feature", "geometry": {"type": "Point", "coordinates": [-122.9353, 45.561546]}, "properties": {"name": "Jsr Micro Inc.", "city": "Hillsboro", "county": "Washington", "industry": "Chemicals", "total_releases_lbs": 4.0, "chemicals": 1}}, {"type": "Feature", "geometry": {"type": "Point", "coordinates": [-118.424354, 45.819341]}, "properties": {"name": "Lakeside Foods Inc.", "city": "Weston", "county": "Umatilla", "industry": "Food", "total_releases_lbs": 18975.0, "chemicals": 1}}, {"type": "Feature", "geometry": {"type": "Point", "coordinates": [-122.759813, 45.424871]}, "properties": {"name": "Agilyx", "city": "Tigard", "county": "Washington", "industry": "Chemicals", "total_releases_lbs": 0.0, "chemicals": 1}}, {"type": "Feature", "geometry": {"type": "Point", "coordinates": [-121.327604, 44.137801]}, "properties": {"name": "Tumalo Concrete", "city": "Bend", "county": "Deschutes", "industry": "Nonmetallic Mineral Product", "total_releases_lbs": 292.0, "chemicals": 2}}, {"type": "Feature", "geometry": {"type": "Point", "coordinates": [-123.165361, 45.230377]}, "properties": {"name": "Tms International Llc", "city": "Mcminnville", "county": "Yamhill", "industry": "Hazardous Waste", "total_releases_lbs": 25.2, "chemicals": 2}}, {"type": "Feature", "geometry": {"type": "Point", "coordinates": [-122.939548, 45.499316]}, "properties": {"name": "Permapost Products Inc", "city": "Hillsboro", "county": "Washington", "industry": "Wood Products", "total_releases_lbs": 0.0, "chemicals": 1}}, {"type": "Feature", "geometry": {"type": "Point", "coordinates": [-122.544946, 45.40316]}, "properties": {"name": "Miles Fiberglass & Composites Inc.", "city": "Clackamas", "county": "Clackamas", "industry": "Chemicals", "total_releases_lbs": 40634.0, "chemicals": 1}}, {"type": "Feature", "geometry": {"type": "Point", "coordinates": [-123.038419, 44.04543]}, "properties": {"name": "Willamette Graystone - Eugene Or Block Plant", "city": "Eugene", "county": "Lane", "industry": "Nonmetallic Mineral Product", "total_releases_lbs": 0.0, "chemicals": 1}}, {"type": "Feature", "geometry": {"type": "Point", "coordinates": [-122.888629, 42.334204]}, "properties": {"name": "Willamette Graystone - Medford Or Block Plant", "city": "Medford", "county": "Jackson", "industry": "Nonmetallic Mineral Product", "total_releases_lbs": 0.0, "chemicals": 1}}, {"type": "Feature", "geometry": {"type": "Point", "coordinates": [-122.716492, 45.572854]}, "properties": {"name": "Daimler Trucks Na Llc", "city": "Portland", "county": "Multnomah", "industry": "Transportation Equipment", "total_releases_lbs": 5110.3, "chemicals": 2}}, {"type": "Feature", "geometry": {"type": "Point", "coordinates": [-122.708513, 45.56585]}, "properties": {"name": "Stack Metallurgical Services", "city": "Portland", "county": "Multnomah", "industry": "Fabricated Metals", "total_releases_lbs": 0.0, "chemicals": 1}}, {"type": "Feature", "geometry": {"type": "Point", "coordinates": [-122.87296, 42.427401]}, "properties": {"name": "Boise Cascade Wood Products Llc-Ewp Plant", "city": "White City", "county": "Jackson", "industry": "Wood Products", "total_releases_lbs": 0.0, "chemicals": 1}}, {"type": "Feature", "geometry": {"type": "Point", "coordinates": [-122.473378, 45.440641]}, "properties": {"name": "Shaw'S Fiberglass & Plastics Inc.", "city": "Damascus", "county": "Clackamas", "industry": "Plastics And Rubber", "total_releases_lbs": 9234.3, "chemicals": 1}}, {"type": "Feature", "geometry": {"type": "Point", "coordinates": [-123.175878, 44.107277]}, "properties": {"name": "Stella-Jones Corp", "city": "Eugene", "county": "Lane", "industry": "Wood Products", "total_releases_lbs": 44.2, "chemicals": 3}}, {"type": "Feature", "geometry": {"type": "Point", "coordinates": [-123.018407, 44.012159]}, "properties": {"name": "Astec Eugene Franklin Blvd", "city": "Eugene", "county": "Lane", "industry": "Machinery", "total_releases_lbs": 161.6, "chemicals": 2}}, {"type": "Feature", "geometry": {"type": "Point", "coordinates": [-122.704156, 45.254404]}, "properties": {"name": "Sr Smith Llc", "city": "Canby", "county": "Clackamas", "industry": "Plastics And Rubber", "total_releases_lbs": 328.1, "chemicals": 2}}, {"type": "Feature", "geometry": {"type": "Point", "coordinates": [-119.671934, 45.842337]}, "properties": {"name": "Lamb Weston Inc.", "city": "Boardman", "county": "Morrow", "industry": "Food", "total_releases_lbs": 32811.1, "chemicals": 1}}, {"type": "Feature", "geometry": {"type": "Point", "coordinates": [-123.05672, 44.14226]}, "properties": {"name": "Carry On Trailer Corp", "city": "Coburg", "county": "Lane", "industry": "Transportation Equipment", "total_releases_lbs": 35.1, "chemicals": 2}}, {"type": "Feature", "geometry": {"type": "Point", "coordinates": [-121.800573, 42.179052]}, "properties": {"name": "Columbia Forest Products", "city": "Klamath Falls", "county": "Klamath", "industry": "Wood Products", "total_releases_lbs": 111.6, "chemicals": 1}}, {"type": "Feature", "geometry": {"type": "Point", "coordinates": [-116.958011, 44.031436]}, "properties": {"name": "J.R. Simplot Co", "city": "Ontario", "county": "Malheur", "industry": "Food", "total_releases_lbs": 92221.0, "chemicals": 1}}, {"type": "Feature", "geometry": {"type": "Point", "coordinates": [-122.598771, 45.147982]}, "properties": {"name": "Molalla Concrete", "city": "Molalla", "county": "Clackamas", "industry": "Nonmetallic Mineral Product", "total_releases_lbs": 0.6, "chemicals": 1}}, {"type": "Feature", "geometry": {"type": "Point", "coordinates": [-123.419328, 43.109012]}, "properties": {"name": "Hoover Treated Wood Products Inc", "city": "Winston", "county": "Douglas", "industry": "Wood Products", "total_releases_lbs": 425.9, "chemicals": 1}}, {"type": "Feature", "geometry": {"type": "Point", "coordinates": [-122.409218, 45.547844]}, "properties": {"name": "Glacier Northwest Inc Troutdale Ready Mix Plant", "city": "Troutdale", "county": "Multnomah", "industry": "Nonmetallic Mineral Product", "total_releases_lbs": 317.8, "chemicals": 2}}, {"type": "Feature", "geometry": {"type": "Point", "coordinates": [-122.778432, 45.378901]}, "properties": {"name": "Pacific Foods", "city": "Tualatin", "county": "Washington", "industry": "Food", "total_releases_lbs": 18930.2, "chemicals": 1}}, {"type": "Feature", "geometry": {"type": "Point", "coordinates": [-122.642386, 45.581768]}, "properties": {"name": "Hydro Extrusion Portland Inc. - Riverside Plant", "city": "Portland", "county": "Multnomah", "industry": "Primary Metals", "total_releases_lbs": 0.0, "chemicals": 1}}, {"type": "Feature", "geometry": {"type": "Point", "coordinates": [-118.818108, 45.673322]}, "properties": {"name": "Keystone Rv", "city": "Pendleton", "county": "Umatilla", "industry": "Transportation Equipment", "total_releases_lbs": 0.0, "chemicals": 1}}, {"type": "Feature", "geometry": {"type": "Point", "coordinates": [-121.689246, 43.476913]}, "properties": {"name": "Gilchrist Forest Products Llc", "city": "Gilchrist", "county": "Klamath", "industry": "Wood Products", "total_releases_lbs": 34.6, "chemicals": 1}}, {"type": "Feature", "geometry": {"type": "Point", "coordinates": [-122.616131, 45.435658]}, "properties": {"name": "Oeco Llc", "city": "Milwaukie", "county": "Clackamas", "industry": "Computers And Electronic Products", "total_releases_lbs": 0.3, "chemicals": 1}}, {"type": "Feature", "geometry": {"type": "Point", "coordinates": [-122.982667, 44.06441]}, "properties": {"name": "Kingsford Manufacturing Co", "city": "Springfield", "county": "Lane", "industry": "Chemicals", "total_releases_lbs": 298.8, "chemicals": 2}}, {"type": "Feature", "geometry": {"type": "Point", "coordinates": [-122.607449, 45.457566]}, "properties": {"name": "Mcclure Industries Inc.", "city": "Portland", "county": "Clackamas", "industry": "Plastics And Rubber", "total_releases_lbs": 6586.0, "chemicals": 1}}, {"type": "Feature", "geometry": {"type": "Point", "coordinates": [-122.565087, 45.564865]}, "properties": {"name": "Owens-Brockway Glass Container Inc Plant 21", "city": "Portland", "county": "Multnomah", "industry": "Nonmetallic Mineral Product", "total_releases_lbs": 446.3, "chemicals": 2}}, {"type": "Feature", "geometry": {"type": "Point", "coordinates": [-122.93825, 45.540082]}, "properties": {"name": "Qorvo Us Inc.", "city": "Hillsboro", "county": "Washington", "industry": "Computers And Electronic Products", "total_releases_lbs": 5122.0, "chemicals": 1}}, {"type": "Feature", "geometry": {"type": "Point", "coordinates": [-123.802878, 45.42097]}, "properties": {"name": "Stimson Lumber Co - Tillamook", "city": "Tillamook", "county": "Tillamook", "industry": "Wood Products", "total_releases_lbs": 15.5, "chemicals": 1}}, {"type": "Feature", "geometry": {"type": "Point", "coordinates": [-123.193078, 44.861219]}, "properties": {"name": "Acpi Wood Products Llc", "city": "Independence", "county": "Polk", "industry": "Furniture", "total_releases_lbs": 32537.0, "chemicals": 2}}, {"type": "Feature", "geometry": {"type": "Point", "coordinates": [-123.431682, 44.022448]}, "properties": {"name": "Rosboro Llc - Vaughn", "city": "Veneta", "county": "Lane", "industry": "Wood Products", "total_releases_lbs": 24.0, "chemicals": 1}}, {"type": "Feature", "geometry": {"type": "Point", "coordinates": [-123.309126, 42.43084]}, "properties": {"name": "Timber Products Co (Dba Tim Ply)", "city": "Grants Pass", "county": "Josephine", "industry": "Wood Products", "total_releases_lbs": 0.0, "chemicals": 1}}, {"type": "Feature", "geometry": {"type": "Point", "coordinates": [-122.872648, 42.43687]}, "properties": {"name": "Plycem Usa Llc", "city": "White City", "county": "Jackson", "industry": "Nonmetallic Mineral Product", "total_releases_lbs": 0.1, "chemicals": 1}}, {"type": "Feature", "geometry": {"type": "Point", "coordinates": [-123.078977, 45.224065]}, "properties": {"name": "Knife River Dayton Asphalt", "city": "Dayton", "county": "Yamhill", "industry": "Petroleum", "total_releases_lbs": 0.1, "chemicals": 2}}, {"type": "Feature", "geometry": {"type": "Point", "coordinates": [-122.814048, 45.493108]}, "properties": {"name": "Vanguard Ems Inc", "city": "Beaverton", "county": "Washington", "industry": "Computers And Electronic Products", "total_releases_lbs": 0.0, "chemicals": 1}}, {"type": "Feature", "geometry": {"type": "Point", "coordinates": [-122.822991, 45.500566]}, "properties": {"name": "Tektronix Inc", "city": "Beaverton", "county": "Washington", "industry": "Computers And Electronic Products", "total_releases_lbs": 2.7, "chemicals": 1}}, {"type": "Feature", "geometry": {"type": "Point", "coordinates": [-122.834616, 45.157087]}, "properties": {"name": "Fleetwood Homes Of Oregon Inc 48", "city": "Woodburn", "county": "Marion", "industry": "Wood Products", "total_releases_lbs": 0.0, "chemicals": 1}}, {"type": "Feature", "geometry": {"type": "Point", "coordinates": [-120.84715, 44.310697]}, "properties": {"name": "Endura Products", "city": "Prineville", "county": "Crook", "industry": "Wood Products", "total_releases_lbs": 0.0, "chemicals": 1}}, {"type": "Feature", "geometry": {"type": "Point", "coordinates": [-122.743046, 45.629103]}, "properties": {"name": "Ajinomoto Toyo Frozen Noodles", "city": "Portland", "county": "Multnomah", "industry": "Food", "total_releases_lbs": 0.0, "chemicals": 1}}, {"type": "Feature", "geometry": {"type": "Point", "coordinates": [-123.926732, 46.122877]}, "properties": {"name": "Us Army National Guard Camp Rilea Ranges", "city": "Warrenton", "county": "Clatsop", "industry": "Other", "total_releases_lbs": 1336.3, "chemicals": 1}}, {"type": "Feature", "geometry": {"type": "Point", "coordinates": [-123.189516, 44.113378]}, "properties": {"name": "Peterson Pacific Corp", "city": "Eugene", "county": "Lane", "industry": "Machinery", "total_releases_lbs": 347.1, "chemicals": 1}}, {"type": "Feature", "geometry": {"type": "Point", "coordinates": [-122.806785, 45.380457]}, "properties": {"name": "Pioneer Metal Finishing", "city": "Tualatin", "county": "Washington", "industry": "Fabricated Metals", "total_releases_lbs": 4833.0, "chemicals": 1}}, {"type": "Feature", "geometry": {"type": "Point", "coordinates": [-122.547715, 45.407883]}, "properties": {"name": "Astronics Peco Group", "city": "Clackamas", "county": "Clackamas", "industry": "Transportation Equipment", "total_releases_lbs": 785.5, "chemicals": 1}}, {"type": "Feature", "geometry": {"type": "Point", "coordinates": [-122.706824, 45.261809]}, "properties": {"name": "Potters Industries Llc", "city": "Canby", "county": "Clackamas", "industry": "Nonmetallic Mineral Product", "total_releases_lbs": 36.2, "chemicals": 1}}, {"type": "Feature", "geometry": {"type": "Point", "coordinates": [-122.879195, 45.530233]}, "properties": {"name": "Axiom Electronics Llc", "city": "Hillsboro", "county": "Washington", "industry": "Computers And Electronic Products", "total_releases_lbs": 0.0, "chemicals": 1}}]}