{"type": "FeatureCollection", "features": [{"type": "Feature", "geometry": {"type": "Point", "coordinates": [-123.075278, 44.643333]}, "properties": {"name": "Am Wrf", "permit": "OR0028801", "city": "Albany", "design_flow_mgd": 8.7}}, {"type": "Feature", "geometry": {"type": "Point", "coordinates": [-122.714472, 42.213632]}, "properties": {"name": "Ashland Stp", "permit": "OR0026255", "city": "Ashland", "design_flow_mgd": 2.3}}, {"type": "Feature", "geometry": {"type": "Point", "coordinates": [-123.771506, 46.201551]}, "properties": {"name": "Astoria Stp", "permit": "OR0027561", "city": "Astoria", "design_flow_mgd": 4.999}}, {"type": "Feature", "geometry": {"type": "Point", "coordinates": [-123.105111, 44.607365]}, "properties": {"name": "Ati Albany Operations", "permit": "OR0001716", "city": "Albany", "design_flow_mgd": null}}, {"type": "Feature", "geometry": {"type": "Point", "coordinates": [-123.0633, 44.66]}, "properties": {"name": "Ati Specialty Alloys & Components, Llc", "permit": "OR0001112", "city": "Albany", "design_flow_mgd": null}}, {"type": "Feature", "geometry": {"type": "Point", "coordinates": [-117.843443, 44.814419]}, "properties": {"name": "Baker City Wwtp", "permit": "OR0020699", "city": "Baker City", "design_flow_mgd": 2.0}}, {"type": "Feature", "geometry": {"type": "Point", "coordinates": [-122.612223, 45.354618]}, "properties": {"name": "Blue Heron Paper Co.", "permit": "OR0000566", "city": "Oregon City", "design_flow_mgd": null}}, {"type": "Feature", "geometry": {"type": "Point", "coordinates": [-124.287909, 42.04707]}, "properties": {"name": "Brookings Wwtp", "permit": "OR0020354", "city": "Brookings", "design_flow_mgd": 1.999}}, {"type": "Feature", "geometry": {"type": "Point", "coordinates": [-122.677693, 45.285123]}, "properties": {"name": "Canby Stp", "permit": "OR0020214", "city": "Canby", "design_flow_mgd": 2.0}}, {"type": "Feature", "geometry": {"type": "Point", "coordinates": [-123.159618, 44.382194]}, "properties": {"name": "Cascade Pacific Pulp, Llc", "permit": "OR0001074", "city": "Halsey", "design_flow_mgd": null}}, {"type": "Feature", "geometry": {"type": "Point", "coordinates": [-122.800487, 45.853539]}, "properties": {"name": "City Of St. Helens", "permit": "OR0020834", "city": "St Helens", "design_flow_mgd": null}}, {"type": "Feature", "geometry": {"type": "Point", "coordinates": [-122.387009, 45.553408]}, "properties": {"name": "City Of Troutdale Water Pollution Control Facility", "permit": "OR0020524", "city": "Troutdale", "design_flow_mgd": 1.9}}, {"type": "Feature", "geometry": {"type": "Point", "coordinates": [-122.2017, 45.2031]}, "properties": {"name": "Clackamas County - Municipal Stormwater Ms4", "permit": "ORS108016", "city": "Clackamas", "design_flow_mgd": null}}, {"type": "Feature", "geometry": {"type": "Point", "coordinates": [-123.1124, 45.6086]}, "properties": {"name": "Clean Water Services, Municipal Stormwater Ms4", "permit": "ORS108014", "city": "Washington", "design_flow_mgd": null}}, {"type": "Feature", "geometry": {"type": "Point", "coordinates": [-122.719, 45.5975]}, "properties": {"name": "Columbia Boulevard Stp", "permit": "OR0026905", "city": "Portland", "design_flow_mgd": 100.0}}, {"type": "Feature", "geometry": {"type": "Point", "coordinates": [-122.8286, 45.9122]}, "properties": {"name": "Columbia River Nitrogen Llc", "permit": "OR0001635", "city": "St Helens", "design_flow_mgd": null}}, {"type": "Feature", "geometry": {"type": "Point", "coordinates": [-124.219065, 43.378247]}, "properties": {"name": "Coos Bay Stp No. 1", "permit": "OR0023574", "city": "Coos Bay", "design_flow_mgd": 2.9}}, {"type": "Feature", "geometry": {"type": "Point", "coordinates": [-124.28276, 43.38566]}, "properties": {"name": "Coos Bay Stp No. 2 - Empire", "permit": "OR0023582", "city": "Coos Bay", "design_flow_mgd": 2.02}}, {"type": "Feature", "geometry": {"type": "Point", "coordinates": [-123.254392, 44.576071]}, "properties": {"name": "Corvallis Stp", "permit": "OR0026361", "city": "Corvallis", "design_flow_mgd": 9.7}}, {"type": "Feature", "geometry": {"type": "Point", "coordinates": [-123.05011, 43.80777]}, "properties": {"name": "Cottage Grove Stp", "permit": "OR0020559", "city": "Cottage Grove", "design_flow_mgd": 1.8}}, {"type": "Feature", "geometry": {"type": "Point", "coordinates": [-123.254843, 44.918831]}, "properties": {"name": "Dallas Stp", "permit": "OR0020737", "city": "Dallas", "design_flow_mgd": 2.0}}, {"type": "Feature", "geometry": {"type": "Point", "coordinates": [-122.761381, 45.401132]}, "properties": {"name": "Durham Stp", "permit": "OR0028118", "city": "Tigard", "design_flow_mgd": 22.6}}, {"type": "Feature", "geometry": {"type": "Point", "coordinates": [-123.08969, 44.05039]}, "properties": {"name": "Eugene, City Of, Municipal Stormwater Ms4", "permit": "ORS107989", "city": "Lane", "design_flow_mgd": null}}, {"type": "Feature", "geometry": {"type": "Point", "coordinates": [-123.084941, 45.507159]}, "properties": {"name": "Forest Grove Stp", "permit": "OR0020168", "city": "Forest Grove", "design_flow_mgd": 5.0}}, {"type": "Feature", "geometry": {"type": "Point", "coordinates": [-123.936832, 44.614453]}, "properties": {"name": "Georgia-Pacific Toledo Llc", "permit": "OR0001341", "city": "Toledo", "design_flow_mgd": null}}, {"type": "Feature", "geometry": {"type": "Point", "coordinates": [-123.407836, 46.157035]}, "properties": {"name": "Gp Wauna Mill", "permit": "OR0000795", "city": "Wauna", "design_flow_mgd": null}}, {"type": "Feature", "geometry": {"type": "Point", "coordinates": [-123.343678, 42.429923]}, "properties": {"name": "Grants Pass Stp", "permit": "OR0028843", "city": "Grants Pass", "design_flow_mgd": 4.0}}, {"type": "Feature", "geometry": {"type": "Point", "coordinates": [-122.459182, 45.546612]}, "properties": {"name": "Gresham Wwtp", "permit": "OR0026131", "city": "Portland", "design_flow_mgd": 15.0}}, {"type": "Feature", "geometry": {"type": "Point", "coordinates": [-122.6204, 45.5507]}, "properties": {"name": "Gresham, City Of; Fairview, City Of; Multnomah County", "permit": "ORS108013", "city": "Gresham", "design_flow_mgd": null}}, {"type": "Feature", "geometry": {"type": "Point", "coordinates": [-123.15779, 44.385434]}, "properties": {"name": "Halsey Mill", "permit": "OR0033405", "city": "Halsey", "design_flow_mgd": null}}, {"type": "Feature", "geometry": {"type": "Point", "coordinates": [-119.310498, 45.861078]}, "properties": {"name": "Hermiston Stp", "permit": "OR0020761", "city": "Hermiston", "design_flow_mgd": 2.94}}, {"type": "Feature", "geometry": {"type": "Point", "coordinates": [-122.99006, 45.5141]}, "properties": {"name": "Hillsboro-Westside Stp", "permit": "OR0023345", "city": "Hillsboro", "design_flow_mgd": 7.5}}, {"type": "Feature", "geometry": {"type": "Point", "coordinates": [-121.520296, 45.714008]}, "properties": {"name": "Hood River Stp", "permit": "OR0020788", "city": "Hood River", "design_flow_mgd": 2.0}}, {"type": "Feature", "geometry": {"type": "Point", "coordinates": [-121.206139, 45.620919]}, "properties": {"name": "Hydro", "permit": "OR0001708", "city": "The Dalles", "design_flow_mgd": null}}, {"type": "Feature", "geometry": {"type": "Point", "coordinates": [-122.952998, 44.055179]}, "properties": {"name": "Ip Springfield Paper Mill", "permit": "OR0000515", "city": "Springfield", "design_flow_mgd": null}}, {"type": "Feature", "geometry": {"type": "Point", "coordinates": [-121.776189, 42.216333]}, "properties": {"name": "Klamath Falls Wastewater Treatment And Reclamation Facility (@ Spring Street)", "permit": "OR0026301", "city": "Klamath Falls", "design_flow_mgd": 6.0}}, {"type": "Feature", "geometry": {"type": "Point", "coordinates": [-118.0277, 45.285576]}, "properties": {"name": "La Grande Stp", "permit": "OR0020460", "city": "La Grande", "design_flow_mgd": 4.999}}, {"type": "Feature", "geometry": {"type": "Point", "coordinates": [-122.897701, 44.549989]}, "properties": {"name": "Lebanon Wwtp", "permit": "OR0020818", "city": "Lebanon", "design_flow_mgd": 3.0}}, {"type": "Feature", "geometry": {"type": "Point", "coordinates": [-124.007396, 44.930977]}, "properties": {"name": "Lincoln City Stp", "permit": "OR0020478", "city": "Lincoln City", "design_flow_mgd": 3.0}}, {"type": "Feature", "geometry": {"type": "Point", "coordinates": [-123.159066, 45.222715]}, "properties": {"name": "Mcminnville Water Reclamation Facility", "permit": "OR0034002", "city": "Mcminnville", "design_flow_mgd": 5.6}}, {"type": "Feature", "geometry": {"type": "Point", "coordinates": [-122.907057, 42.434923]}, "properties": {"name": "Medford Rwrf", "permit": "OR0026263", "city": "Central Point", "design_flow_mgd": 20.0}}, {"type": "Feature", "geometry": {"type": "Point", "coordinates": [-122.6204, 45.5507]}, "properties": {"name": "Multnomah County Ms4", "permit": "ORS120542", "city": "Troutdale", "design_flow_mgd": null}}, {"type": "Feature", "geometry": {"type": "Point", "coordinates": [-123.119528, 44.096194]}, "properties": {"name": "Mwmc - Eugene/Springfield Stp", "permit": "OR0031224", "city": "Eugene", "design_flow_mgd": 49.0}}, {"type": "Feature", "geometry": {"type": "Point", "coordinates": [-122.953529, 45.287342]}, "properties": {"name": "Newberg - Wynooski Road Stp", "permit": "OR0032352", "city": "Newberg", "design_flow_mgd": 4.0}}, {"type": "Feature", "geometry": {"type": "Point", "coordinates": [-122.960277, 45.288333]}, "properties": {"name": "Newberg Or, Llc", "permit": "OR0000558", "city": "Newberg", "design_flow_mgd": null}}, {"type": "Feature", "geometry": {"type": "Point", "coordinates": [-124.04844, 44.59777]}, "properties": {"name": "Newport Stp", "permit": "OR0044571", "city": "Newport", "design_flow_mgd": 3.5}}, {"type": "Feature", "geometry": {"type": "Point", "coordinates": [-124.254255, 43.415363]}, "properties": {"name": "North Bend Stp", "permit": "OR0023361", "city": "North Bend", "design_flow_mgd": 2.2}}, {"type": "Feature", "geometry": {"type": "Point", "coordinates": [-122.652298, 45.423633]}, "properties": {"name": "Oak Lodge Water Services Water Reclamation Facility", "permit": "OR0026140", "city": "Milwaukie", "design_flow_mgd": 4.0}}, {"type": "Feature", "geometry": {"type": "Point", "coordinates": [-117.000862, 44.039378]}, "properties": {"name": "Ontario Stp", "permit": "OR0020621", "city": "Ontario", "design_flow_mgd": 3.06}}, {"type": "Feature", "geometry": {"type": "Point", "coordinates": [-118.836944, 45.66794]}, "properties": {"name": "Pendleton Stp", "permit": "OR0026395", "city": "Pendleton", "design_flow_mgd": 5.5}}, {"type": "Feature", "geometry": {"type": "Point", "coordinates": [-123.157889, 46.171721]}, "properties": {"name": "Port Of St. Helens Industrial Outfall", "permit": "OR0034231", "city": "Clatskanie", "design_flow_mgd": null}}, {"type": "Feature", "geometry": {"type": "Point", "coordinates": [-122.6204, 45.5507]}, "properties": {"name": "Portland, City Of - Municipal", "permit": "ORS108015", "city": "Portland", "design_flow_mgd": null}}, {"type": "Feature", "geometry": {"type": "Point", "coordinates": [-120.873846, 44.310061]}, "properties": {"name": "Prineville Stp", "permit": "OR0023612", "city": "Prineville", "design_flow_mgd": 1.67}}, {"type": "Feature", "geometry": {"type": "Point", "coordinates": [-123.396131, 43.208918]}, "properties": {"name": "R.U.S.A. Roseburg Stp", "permit": "OR0031356", "city": "Roseburg", "design_flow_mgd": 7.9}}, {"type": "Feature", "geometry": {"type": "Point", "coordinates": [-122.944973, 45.49503]}, "properties": {"name": "Rock Creek Stp", "permit": "OR0029777", "city": "Hillsboro", "design_flow_mgd": 39.0}}, {"type": "Feature", "geometry": {"type": "Point", "coordinates": [-123.05457, 45.008574]}, "properties": {"name": "Salem Willow Lake Stp", "permit": "OR0026409", "city": "Salem", "design_flow_mgd": 35.0}}, {"type": "Feature", "geometry": {"type": "Point", "coordinates": [-122.9832, 44.9228]}, "properties": {"name": "Salem, City Of, Municipal Stormwater Ms4", "permit": "ORS108919", "city": "Marion", "design_flow_mgd": null}}, {"type": "Feature", "geometry": {"type": "Point", "coordinates": [-123.923263, 46.005499]}, "properties": {"name": "Seaside Stp", "permit": "OR0020401", "city": "Seaside", "design_flow_mgd": 2.25}}, {"type": "Feature", "geometry": {"type": "Point", "coordinates": [-122.756343, 45.576652]}, "properties": {"name": "Siltronic Corporation", "permit": "OR0030589", "city": "Portland", "design_flow_mgd": null}}, {"type": "Feature", "geometry": {"type": "Point", "coordinates": [-122.802011, 45.008957]}, "properties": {"name": "Silverton Stp", "permit": "OR0020656", "city": "Silverton", "design_flow_mgd": 2.5}}, {"type": "Feature", "geometry": {"type": "Point", "coordinates": [-116.957188, 44.033053]}, "properties": {"name": "Simplot Ontario", "permit": "OR0002402", "city": "Ontario", "design_flow_mgd": null}}, {"type": "Feature", "geometry": {"type": "Point", "coordinates": [-121.76553, 42.199768]}, "properties": {"name": "South Suburban Stp", "permit": "OR0023876", "city": "Klamath Falls", "design_flow_mgd": 4.999}}, {"type": "Feature", "geometry": {"type": "Point", "coordinates": [-122.814016, 44.789176]}, "properties": {"name": "Stayton Stp", "permit": "OR0020427", "city": "Stayton", "design_flow_mgd": 1.9}}, {"type": "Feature", "geometry": {"type": "Point", "coordinates": [-122.73797, 44.400019]}, "properties": {"name": "Sweet Home Stp", "permit": "OR0020346", "city": "Sweet Home", "design_flow_mgd": 1.38}}, {"type": "Feature", "geometry": {"type": "Point", "coordinates": [-121.179408, 45.601496]}, "properties": {"name": "The Dalles Stp", "permit": "OR0020885", "city": "The Dalles", "design_flow_mgd": 4.15}}, {"type": "Feature", "geometry": {"type": "Point", "coordinates": [-123.843223, 45.484161]}, "properties": {"name": "Tillamook Creamery", "permit": "OR0000141", "city": "Tillamook", "design_flow_mgd": null}}, {"type": "Feature", "geometry": {"type": "Point", "coordinates": [-123.857921, 45.455265]}, "properties": {"name": "Tillamook Stp", "permit": "OR0020664", "city": "Tillamook", "design_flow_mgd": 1.06}}, {"type": "Feature", "geometry": {"type": "Point", "coordinates": [-122.658561, 45.421607]}, "properties": {"name": "Tryon Creek Wwtp", "permit": "OR0026891", "city": "Portland", "design_flow_mgd": 8.3}}, {"type": "Feature", "geometry": {"type": "Point", "coordinates": [-122.642494, 45.440114]}, "properties": {"name": "Wes (Kellogg Creek Wwtp)", "permit": "OR0026221", "city": "Milwaukie", "design_flow_mgd": 10.0}}, {"type": "Feature", "geometry": {"type": "Point", "coordinates": [-122.59025, 45.375317]}, "properties": {"name": "Wes (Tri-City Wpcp)", "permit": "OR0031259", "city": "Oregon City", "design_flow_mgd": 11.9}}, {"type": "Feature", "geometry": {"type": "Point", "coordinates": [-122.614836, 45.356397]}, "properties": {"name": "Willamette Falls Paper Company", "permit": "OR0000787", "city": "West Linn", "design_flow_mgd": null}}, {"type": "Feature", "geometry": {"type": "Point", "coordinates": [-122.771814, 45.294943]}, "properties": {"name": "Wilsonville Stp", "permit": "OR0022764", "city": "Wilsonville", "design_flow_mgd": 2.25}}, {"type": "Feature", "geometry": {"type": "Point", "coordinates": [-122.805849, 45.155901]}, "properties": {"name": "Woodburn Wwtp", "permit": "OR0020001", "city": "Woodburn", "design_flow_mgd": 3.33}}]}